[
  {
    "name": "Witten, GE Otto-Schott-Gesamtschule",
    "schultyp": "Gesamtschule",
    "sozialindex": "5",
    "latitude": "51.4375279",
    "longitude": "7.3728035",
    "address": "Holzkamp-Gesamtschule, Holzkampstraße, Annen, Witten, Ennepe-Ruhr-Kreis, Nordrhein-Westfalen, 58453, Deutschland"
  },
  {
    "name": "Witten, GE Holzkamp",
    "schultyp": "Gesamtschule",
    "sozialindex": "4",
    "latitude": "51.4380217",
    "longitude": "7.3735305",
    "address": "Holzkamp-Gesamtschule, 2, Willy-Brandt-Straße, Annen, Witten, Ennepe-Ruhr-Kreis, Nordrhein-Westfalen, 58453, Deutschland"
  },
  {
    "name": "Witten, GE Hardenstein",
    "schultyp": "Gesamtschule",
    "sozialindex": "3",
    "latitude": "51.415329",
    "longitude": "7.2788103",
    "address": "Hardenstein-Gesamtschule, 4, An der Wabeck, Westherbede, Herbede, Witten, Ennepe-Ruhr-Kreis, Nordrhein-Westfalen, 58456, Deutschland"
  },
  {
    "name": "Sprockhövel, GE Wilhelm-Kraft",
    "schultyp": "Gesamtschule",
    "sozialindex": "4",
    "latitude": "51.3336537",
    "longitude": "7.2850932",
    "address": "Wilhelm-Kraft-Gesamtschule, Oststraße, Haßlinghausen, Sprockhövel, Ennepe-Ruhr-Kreis, Nordrhein-Westfalen, 45549, Deutschland"
  },
  {
    "name": "Hattingen, GE Marxstr.",
    "schultyp": "Gesamtschule",
    "sozialindex": "3",
    "latitude": "51.4090992",
    "longitude": "7.2180531",
    "address": "Gesamtschule Hattingen, Marxstraße, Hüttenau, Blankenstein, Hattingen, Ennepe-Ruhr-Kreis, Nordrhein-Westfalen, 45527, Deutschland"
  },
  {
    "name": "Witten, Gym Schiller",
    "schultyp": "Gymnasium",
    "sozialindex": "2",
    "latitude": "51.439954",
    "longitude": "7.3343683",
    "address": "Schiller-Gymnasium, Schultenhofstraße, Wiesenviertel, Witten-Mitte, Witten, Ennepe-Ruhr-Kreis, Nordrhein-Westfalen, 58452, Deutschland"
  },
  {
    "name": "Witten, Gym Ruhr",
    "schultyp": "Gymnasium",
    "sozialindex": "2",
    "latitude": "51.4419295",
    "longitude": "7.3316855",
    "address": "Ruhr-Gymnasium, Synagogenstraße, Breddeviertel, Witten-Mitte, Witten, Ennepe-Ruhr-Kreis, Nordrhein-Westfalen, 58452, Deutschland"
  },
  {
    "name": "Witten, Gym Albert-Martmöller",
    "schultyp": "Gymnasium",
    "sozialindex": "2",
    "latitude": "51.4392993",
    "longitude": "7.3403761",
    "address": "Albert-Martmöller-Gymnasium, Markmannstraße, Johannisviertel, Witten-Mitte, Witten, Ennepe-Ruhr-Kreis, Nordrhein-Westfalen, 58452, Deutschland"
  },
  {
    "name": "Ennepetal, Gym Reichenbach",
    "schultyp": "Gymnasium",
    "sozialindex": "3",
    "latitude": "51.3012332",
    "longitude": "7.3580968",
    "address": "Reichenbach-Gymnasium, Peddinghausstraße, Esbecke, Homberge, Ennepetal, Ennepe-Ruhr-Kreis, Nordrhein-Westfalen, 58256, Deutschland"
  },
  {
    "name": "Gevelsberg, Gym Gevelsberg",
    "schultyp": "Gymnasium",
    "sozialindex": "2",
    "latitude": "51.324017",
    "longitude": "7.316541",
    "address": "Hasencleverschule - Städtische Förderschule Gevelsberg, 12, Am Hofe, Frielinghausen, Gevelsberg, Ennepe-Ruhr-Kreis, Nordrhein-Westfalen, 58285, Deutschland"
  },
  {
    "name": "Hattingen, Gym Schulzentrum Holthausen",
    "schultyp": "Gymnasium",
    "sozialindex": "2",
    "latitude": "51.3971013",
    "longitude": "7.2053177",
    "address": "Gymnasium im Schulzentrum Holthausen, 2, Lindstockstraße, Obereichholz, Hattingen, Ennepe-Ruhr-Kreis, Nordrhein-Westfalen, 45527, Deutschland"
  },
  {
    "name": "Hattingen, Gym Waldstraße",
    "schultyp": "Gymnasium",
    "sozialindex": "3",
    "latitude": "51.3913767",
    "longitude": "7.1891307",
    "address": "Gymnasium Waldstraße, Pilgerweg, Rosental, Hattingen, Ennepe-Ruhr-Kreis, Nordrhein-Westfalen, 45525, Deutschland"
  },
  {
    "name": "Herdecke, Gym Friedrich-Harkort-Schule",
    "schultyp": "Gymnasium",
    "sozialindex": "1",
    "latitude": "51.3957167",
    "longitude": "7.4403404",
    "address": "Friedrich-Harkort Schule, Hengsteyseestraße, Sonnenstein, Herdecke, Ennepe-Ruhr-Kreis, Nordrhein-Westfalen, 58313, Deutschland"
  },
  {
    "name": "Schwelm, Gym Märkisches",
    "schultyp": "Gymnasium",
    "sozialindex": "3",
    "latitude": "51.2810783",
    "longitude": "7.2870271",
    "address": "Märkisches Gymnasium Schwelm, 1, Präsidentenstraße, Schwelm, Ennepe-Ruhr-Kreis, Nordrhein-Westfalen, 58332, Deutschland"
  },
  {
    "name": "Wetter, Gym Geschwister-Scholl",
    "schultyp": "Gymnasium",
    "sozialindex": "1",
    "latitude": "51.3857535",
    "longitude": "7.3761965",
    "address": "Geschwister - Scholl-Gymnasium, Haus Hove, Oberwengern, Volmarstein, Wetter (Ruhr), Ennepe-Ruhr-Kreis, Nordrhein-Westfalen, 58300, Deutschland"
  },
  {
    "name": "Arnsberg, Gym Laurentianum",
    "schultyp": "Gymnasium",
    "sozialindex": "3",
    "latitude": "51.3916026",
    "longitude": "8.06552",
    "address": "Gymnasium Laurentianum, 26, Klosterstraße, Arnsberg, Hochsauerlandkreis, Nordrhein-Westfalen, 59821, Deutschland"
  },
  {
    "name": "Sundern, Gym Berliner Str.",
    "schultyp": "Gymnasium",
    "sozialindex": "1",
    "latitude": "51.3207278",
    "longitude": "7.9999449",
    "address": "Städtisches Gymnasium Sundern, 55, Berliner Straße, Sundern, Hochsauerlandkreis, Nordrhein-Westfalen, 59846, Deutschland"
  },
  {
    "name": "Brilon, Gym Petrinum",
    "schultyp": "Gymnasium",
    "sozialindex": "1",
    "latitude": "51.3932122",
    "longitude": "8.5510777",
    "address": "Gymnasium Petrinum, 21, Zur Jakobuslinde, Brilon (Kernstadt), Brilon, Hochsauerlandkreis, Nordrhein-Westfalen, 59929, Deutschland"
  },
  {
    "name": "Winterberg, Gym Geschwister-Scholl",
    "schultyp": "Gymnasium",
    "sozialindex": "1",
    "latitude": "51.1886615",
    "longitude": "8.52701",
    "address": "Geschwister Scholl-Gymnasium der Stadt Winterberg, Gartenstraße, Winterberg, Hochsauerlandkreis, Nordrhein-Westfalen, 59955, Deutschland"
  },
  {
    "name": "Marsberg, Gym Carolus-Magnus",
    "schultyp": "Gymnasium",
    "sozialindex": "1",
    "latitude": "51.4645943",
    "longitude": "8.8528706",
    "address": "Carolus-Magnus-Gymnasium, Mönchstraße, Niedermarsberg, Marsberg, Hochsauerlandkreis, Nordrhein-Westfalen, 34431, Deutschland"
  },
  {
    "name": "Meschede, Gym Schederweg",
    "schultyp": "Gymnasium",
    "sozialindex": "2",
    "latitude": "51.3411288",
    "longitude": "8.2976941",
    "address": "Gymnasium der Stadt Meschede, 65, Schederweg, Heinrichsthal, Meschede, Hochsauerlandkreis, Nordrhein-Westfalen, 59872, Deutschland"
  },
  {
    "name": "Schmallenberg, Gym Obringhauser Straße",
    "schultyp": "Gymnasium",
    "sozialindex": "1",
    "latitude": "51.1541617",
    "longitude": "8.2846242",
    "address": "Obringhauser Straße, Schmallenberg, Hochsauerlandkreis, Nordrhein-Westfalen, 57392, Deutschland"
  },
  {
    "name": "Arnsberg, Gym Franz-Stock",
    "schultyp": "Gymnasium",
    "sozialindex": "2",
    "latitude": "51.4366195",
    "longitude": "7.9676658",
    "address": "Franz-Stock-Gymnasium, Berliner Platz, Rumbecker Holz, Hüsten, Arnsberg, Hochsauerlandkreis, Nordrhein-Westfalen, 59759, Deutschland"
  },
  {
    "name": "Finnentrop, GE Bigge-Lenne",
    "schultyp": "Gesamtschule",
    "sozialindex": "3",
    "latitude": "51.1712933",
    "longitude": "7.9729871",
    "address": "Bigge-Lenne Gesamtschule, 22-24, Kopernikusstraße, Finnentrop, Kreis Olpe, Nordrhein-Westfalen, 57413, Deutschland"
  },
  {
    "name": "Wenden, GE Peter-Dassis-Ring",
    "schultyp": "Gesamtschule",
    "sozialindex": "2",
    "latitude": "50.9737524",
    "longitude": "7.8704253",
    "address": "Peter-Dassis-Ring, Wenden, Kreis Olpe, Nordrhein-Westfalen, 57482, Deutschland"
  },
  {
    "name": "Attendorn, Gym Rivius",
    "schultyp": "Gymnasium",
    "sozialindex": "2",
    "latitude": "51.1274418",
    "longitude": "7.9001014",
    "address": "Rivius-Gymnasium, Westwall, Attendorn, Kreis Olpe, Nordrhein-Westfalen, 57439, Deutschland"
  },
  {
    "name": "Lennestadt, Gym Am Biertappen",
    "schultyp": "Gymnasium",
    "sozialindex": "2",
    "latitude": "51.1036799",
    "longitude": "8.0693883",
    "address": "Am Biertappen, Altenhundem, Lennestadt, Kreis Olpe, Nordrhein-Westfalen, 57368, Deutschland"
  },
  {
    "name": "Olpe, Gym Seminarstr.",
    "schultyp": "Gymnasium",
    "sozialindex": "1",
    "latitude": "51.0332143",
    "longitude": "7.8464556",
    "address": "Städtisches Gymnasium Olpe, Seminarstraße, Olpe, Kreis Olpe, Nordrhein-Westfalen, 57462, Deutschland"
  },
  {
    "name": "Siegen, GE Am Rosterberg",
    "schultyp": "Gesamtschule",
    "sozialindex": "6",
    "latitude": "",
    "longitude": "",
    "address": ""
  },
  {
    "name": "Siegen, GE Bertha-v.-Suttner-Gesamtschul",
    "schultyp": "Gesamtschule",
    "sozialindex": "5",
    "latitude": "",
    "longitude": "",
    "address": ""
  },
  {
    "name": "Siegen, GE Eiserfeld",
    "schultyp": "Gesamtschule",
    "sozialindex": "3",
    "latitude": "50.8334725",
    "longitude": "7.9981895",
    "address": "Gesamtschule Eiserfeld, Talsbachstraße, Wiedthal, Eiserfeld, Siegen, Kreis Siegen-Wittgenstein, Nordrhein-Westfalen, 57080, Deutschland"
  },
  {
    "name": "Kreuztal, GE Clara-Schumann-Schule",
    "schultyp": "Gesamtschule",
    "sozialindex": "5",
    "latitude": "50.9631562",
    "longitude": "7.9950428",
    "address": "Clara-Schumann-Gesamtschule, 2, Djurslandweg, Kreuztal, Fellinghausen, Kreuztal, Kreis Siegen-Wittgenstein, Nordrhein-Westfalen, 57223, Deutschland"
  },
  {
    "name": "Freudenberg, GE Esther-Bejarano",
    "schultyp": "Gesamtschule",
    "sozialindex": "2",
    "latitude": "50.9090231",
    "longitude": "7.8846609",
    "address": "Esther-Bejarano-Gesamtschule Freudenberg + Turnhalle (Gebäudeteil C), 5 - 9, Hermann-Vomhof-Straße, Eichen, Büschergrund, Freudenberg, Kreis Siegen-Wittgenstein, Nordrhein-Westfalen, 57258, Deutschland"
  },
  {
    "name": "Siegen, GE Auf dem Schießberg",
    "schultyp": "Gesamtschule",
    "sozialindex": "6",
    "latitude": "50.908701",
    "longitude": "7.9930565",
    "address": "Gesamtschule auf dem Schießberg, Schießbergstraße, Geisweid, Siegen, Kreis Siegen-Wittgenstein, Nordrhein-Westfalen, 57078, Deutschland"
  },
  {
    "name": "Siegen, Gym Auf der Morgenröthe",
    "schultyp": "Gymnasium",
    "sozialindex": "2",
    "latitude": "50.8481688",
    "longitude": "7.982364",
    "address": "Gymnasium auf der Morgenröthe; Realschule Am Hengsberg, 100, Höllenwaldstraße, Niederschelden, Siegen, Kreis Siegen-Wittgenstein, Nordrhein-Westfalen, 57080, Deutschland"
  },
  {
    "name": "Siegen, Gym Fürst-Johann-Moritz",
    "schultyp": "Gymnasium",
    "sozialindex": "3",
    "latitude": "50.9032681",
    "longitude": "8.0184742",
    "address": "Fürst-Johann-Moritz-Gymnasium, Hüttentalstraße, Weidenau, Siegen, Kreis Siegen-Wittgenstein, Nordrhein-Westfalen, 57076, Deutschland"
  },
  {
    "name": "Siegen, Gym Am Löhrtor",
    "schultyp": "Gymnasium",
    "sozialindex": "2",
    "latitude": "50.87178",
    "longitude": "8.0209917",
    "address": "Gymnasium am Löhrtor, 27, Oranienstraße, Siegen, Kreis Siegen-Wittgenstein, Nordrhein-Westfalen, 57072, Deutschland"
  },
  {
    "name": "Siegen, Gym Peter-Paul-Rubens",
    "schultyp": "Gymnasium",
    "sozialindex": "6",
    "latitude": "50.8617825",
    "longitude": "8.0192891",
    "address": "Peter-Paul-Rubens-Gymnasium, Ganztagsgymnasium der Stadt Siegen, 143, Rosterstraße, Siegen, Kreis Siegen-Wittgenstein, Nordrhein-Westfalen, 57074, Deutschland"
  },
  {
    "name": "Kreuztal, Gym Zum Erbstollen",
    "schultyp": "Gymnasium",
    "sozialindex": "2",
    "latitude": "50.9631658",
    "longitude": "7.9958847",
    "address": "Städtisches Gymnasium Kreuztal, 5, Zum Erbstollen, Kreuztal, Fellinghausen, Kreuztal, Kreis Siegen-Wittgenstein, Nordrhein-Westfalen, 57223, Deutschland"
  },
  {
    "name": "Neunkirchen, Gym Dietrich-Bonhoeffer",
    "schultyp": "Gymnasium",
    "sozialindex": "1",
    "latitude": "50.7886314",
    "longitude": "8.0115193",
    "address": "Dietrich-Bonhoeffer-Gymnasium, 100, Kopernikusring, Zeppenfeld, Neunkirchen, Kreis Siegen-Wittgenstein, Nordrhein-Westfalen, 57290, Deutschland"
  },
  {
    "name": "Bad Berleburg, Gym Johannes-Althusius",
    "schultyp": "Gymnasium",
    "sozialindex": "1",
    "latitude": "51.0497112",
    "longitude": "8.3915755",
    "address": "Johannes-Althusius-Gymnasium, 11, Im Herrengarten, Oberstadt, Bad Berleburg, Kreis Siegen-Wittgenstein, Nordrhein-Westfalen, 57319, Deutschland"
  },
  {
    "name": "Bad Laasphe, Gym Steinackerstr.",
    "schultyp": "Gymnasium",
    "sozialindex": "2",
    "latitude": "50.928181",
    "longitude": "8.4101171",
    "address": "Steinackerstraße, Bad Laasphe, Kreis Siegen-Wittgenstein, Nordrhein-Westfalen, 57334, Deutschland"
  },
  {
    "name": "Netphen, Gym Haardtstraße",
    "schultyp": "Gymnasium",
    "sozialindex": "1",
    "latitude": "",
    "longitude": "",
    "address": ""
  },
  {
    "name": "Wilnsdorf, Gym Hoheroth",
    "schultyp": "Gymnasium",
    "sozialindex": "1",
    "latitude": "50.8232309",
    "longitude": "8.118357",
    "address": "Gymnasium Wilnsdorf, 94, Hoheroth, Wilnsdorf, Kreis Siegen-Wittgenstein, Nordrhein-Westfalen, 57234, Deutschland"
  },
  {
    "name": "Soest, GE Hannah-Arendt",
    "schultyp": "Gesamtschule",
    "sozialindex": "4",
    "latitude": "51.5582155",
    "longitude": "8.1066055",
    "address": "Hannah-Arendt-Gesamtschule, 1, Wilhelm-von-Holland-Weg, Soest, Kreis Soest, Nordrhein-Westfalen, 59494, Deutschland"
  },
  {
    "name": "Lippstadt, GE Ulmenstraße",
    "schultyp": "Gesamtschule",
    "sozialindex": "3",
    "latitude": "51.6642971",
    "longitude": "8.3324712",
    "address": "Städt. Gesamtschule Lippstadt, 31, Ulmenstraße, Lippstadt, Kreis Soest, Nordrhein-Westfalen, 59557, Deutschland"
  },
  {
    "name": "Lippetal, GE Lippetalschule",
    "schultyp": "Gesamtschule",
    "sozialindex": "1",
    "latitude": "51.6645551",
    "longitude": "8.1471434",
    "address": "Lippetalschule, 14, Alte Dorfstraße, Herzfeld, Lippetal, Kreis Soest, Nordrhein-Westfalen, 59510, Deutschland"
  },
  {
    "name": "Warstein, Gym Europa-Gymnasium",
    "schultyp": "Gymnasium",
    "sozialindex": "2",
    "latitude": "51.4540754",
    "longitude": "8.3493607",
    "address": "Europa-Gymnasium Warstein, 9, Schorenweg, Warstein-Ortschaft, Warstein, Kreis Soest, Nordrhein-Westfalen, 59581, Deutschland"
  },
  {
    "name": "Geseke, Gym Antonianum",
    "schultyp": "Gymnasium",
    "sozialindex": "1",
    "latitude": "51.6408706",
    "longitude": "8.51294",
    "address": "Gymnasium Antonianum Geseke, 1, Wichburgastraße, Geseke, Kreis Soest, Nordrhein-Westfalen, 59590, Deutschland"
  },
  {
    "name": "Lippstadt, Gym Europaschule Ostendorf",
    "schultyp": "Gymnasium",
    "sozialindex": "3",
    "latitude": "51.6768503",
    "longitude": "8.3397178",
    "address": "Europaschule Ostendorf Gymnasium, Friedrichstraße, Lippstadt, Kreis Soest, Nordrhein-Westfalen, 59555, Deutschland"
  },
  {
    "name": "Erwitte, Gym Glasmerweg",
    "schultyp": "Gymnasium",
    "sozialindex": "2",
    "latitude": "51.6141631",
    "longitude": "8.3157888",
    "address": "Glasmerweg, Stirpe, Erwitte, Kreis Soest, Nordrhein-Westfalen, 59597, Deutschland"
  },
  {
    "name": "Rüthen, Gym Friedrich-Spee",
    "schultyp": "Gymnasium",
    "sozialindex": "1",
    "latitude": "51.4941632",
    "longitude": "8.4371522",
    "address": "Friedrich-Spee-Gymnasium, 8, Lippstädter Straße, Rüthen, Kreis Soest, Nordrhein-Westfalen, 59602, Deutschland"
  },
  {
    "name": "Soest, Gym Europaschule Aldegrever",
    "schultyp": "Gymnasium",
    "sozialindex": "2",
    "latitude": "",
    "longitude": "",
    "address": ""
  },
  {
    "name": "Soest, Gym Conrad-von-Soest",
    "schultyp": "Gymnasium",
    "sozialindex": "1",
    "latitude": "51.5700327",
    "longitude": "8.0820636",
    "address": "Conrad-von-Soest-Gymnasium, Paradieser Weg, Ardey, Soest, Kreis Soest, Nordrhein-Westfalen, 59494, Deutschland"
  },
  {
    "name": "Soest, Gym Archi",
    "schultyp": "Gymnasium",
    "sozialindex": "1",
    "latitude": "",
    "longitude": "",
    "address": ""
  },
  {
    "name": "Werl, Gym Marien",
    "schultyp": "Gymnasium",
    "sozialindex": "2",
    "latitude": "",
    "longitude": "",
    "address": ""
  },
  {
    "name": "Fröndenberg/Ruhr, GE Im Wiesengrund",
    "schultyp": "Gesamtschule",
    "sozialindex": "3",
    "latitude": "",
    "longitude": "",
    "address": ""
  },
  {
    "name": "Lünen, GE Geschwister-Scholl-Schule",
    "schultyp": "Gesamtschule",
    "sozialindex": "4",
    "latitude": "51.61",
    "longitude": "7.5218029",
    "address": "Geschwister-Scholl-Gesamtschule, 2-6, Holtgrevenstraße, Geistviertel, Lünen, Kreis Unna, Nordrhein-Westfalen, 44532, Deutschland"
  },
  {
    "name": "Unna, GE Peter-Weiss",
    "schultyp": "Gesamtschule",
    "sozialindex": "4",
    "latitude": "51.5329899",
    "longitude": "7.6954612",
    "address": "Peter-Weiss-Gesamtschule, 16, Herderstraße, Unna, Kreis Unna, Nordrhein-Westfalen, 59423, Deutschland"
  },
  {
    "name": "Bergkamen, GE Willy-Brandt-Gesamtschule",
    "schultyp": "Gesamtschule",
    "sozialindex": "5",
    "latitude": "51.6233971",
    "longitude": "7.649734",
    "address": "Willy-Brandt-Gesamtschule, Albert-Schweitzer-Straße, Overberge, Bergkamen, Kreis Unna, Nordrhein-Westfalen, 59192, Deutschland"
  },
  {
    "name": "Lünen, GE Käthe-Kollwitz",
    "schultyp": "Gesamtschule",
    "sozialindex": "5",
    "latitude": "51.5891864",
    "longitude": "7.5208927",
    "address": "Käthe-Kollwitz-Gesamtschule, 8, Dammwiese, Lünen-Süd, Lünen, Kreis Unna, Nordrhein-Westfalen, 44532, Deutschland"
  },
  {
    "name": "Schwerte, GE Gänsewinkel",
    "schultyp": "Gesamtschule",
    "sozialindex": "3",
    "latitude": "51.4475831",
    "longitude": "7.591661",
    "address": "Im Gänsewinkel, Schwerte, Kreis Unna, Nordrhein-Westfalen, 58239, Deutschland"
  },
  {
    "name": "Unna, GE Werner-von-Siemens",
    "schultyp": "Gesamtschule",
    "sozialindex": "4",
    "latitude": "51.4742852",
    "longitude": "7.7975661",
    "address": "Werner-von-Siemens-Straße, Westick, Fröndenberg/Ruhr, Kreis Unna, Nordrhein-Westfalen, 58730, Deutschland"
  },
  {
    "name": "Kamen, GE Gutenbergstraße",
    "schultyp": "Gesamtschule",
    "sozialindex": "4",
    "latitude": "51.5882074",
    "longitude": "7.6773861",
    "address": "Fridtjof Nansen Realschule/Gesamtschule Kamen, 2, Gutenbergstraße, Südkamen, Kamen, Kreis Unna, Nordrhein-Westfalen, 59174, Deutschland"
  },
  {
    "name": "Schwerte, GE Theodor-Fleitmann",
    "schultyp": "Gesamtschule",
    "sozialindex": "5",
    "latitude": "51.4450036",
    "longitude": "7.5542034",
    "address": "Theodor-Fleitmann-Gesamtschule, Im Bohlgarten, Holzen-Rosen, Schwerte, Kreis Unna, Nordrhein-Westfalen, 58239, Deutschland"
  },
  {
    "name": "Werne, Gym Anne-Frank",
    "schultyp": "Gymnasium",
    "sozialindex": "2",
    "latitude": "51.670293",
    "longitude": "7.6178101",
    "address": "Anne-Frank-Gymnasium, Goetheweg, Werne, Kreis Unna, Nordrhein-Westfalen, 59368, Deutschland"
  },
  {
    "name": "Lünen, Gym Altlünen",
    "schultyp": "Gymnasium",
    "sozialindex": "3",
    "latitude": "51.6333645",
    "longitude": "7.5204879",
    "address": "Städtische Realschule Altlünen, Rudolph-Nagell-Straße, Nordlünen, Lünen, Kreis Unna, Nordrhein-Westfalen, 44534, Deutschland"
  },
  {
    "name": "Lünen, Gym Freiherr-vom-Stein",
    "schultyp": "Gymnasium",
    "sozialindex": "3",
    "latitude": "51.6105164",
    "longitude": "7.5159813",
    "address": "Freiherr-vom-Stein-Gymnasium, Friedenstraße, Geistviertel, Lünen, Kreis Unna, Nordrhein-Westfalen, 44532, Deutschland"
  },
  {
    "name": "Schwerte, Gym Friedrich-Bährens",
    "schultyp": "Gymnasium",
    "sozialindex": "2",
    "latitude": "51.4458842",
    "longitude": "7.5728925",
    "address": "Friedrich Bährens Gymnasium, Ostberger Straße, Villigst, Schwerte, Kreis Unna, Nordrhein-Westfalen, 58239, Deutschland"
  },
  {
    "name": "Schwerte, Gym Ruhrtal",
    "schultyp": "Gymnasium",
    "sozialindex": "2",
    "latitude": "51.4433461",
    "longitude": "7.5705202",
    "address": "Ruhrtal-Gymnasium Schwerte, 6, Wittekindstraße, Wandhofen, Schwerte, Kreis Unna, Nordrhein-Westfalen, 58239, Deutschland"
  },
  {
    "name": "Kamen, Gym Hammer Str.",
    "schultyp": "Gymnasium",
    "sozialindex": "2",
    "latitude": "51.5955735",
    "longitude": "7.6670089",
    "address": "Städtisches Gymnasium Kamen, 19, Hammer Straße, Kamen-Mitte, Kamen, Kreis Unna, Nordrhein-Westfalen, 59174, Deutschland"
  },
  {
    "name": "Unna, Gym Geschwister-Scholl",
    "schultyp": "Gymnasium",
    "sozialindex": "3",
    "latitude": "51.61",
    "longitude": "7.5218029",
    "address": "Geschwister-Scholl-Gesamtschule, 2-6, Holtgrevenstraße, Geistviertel, Lünen, Kreis Unna, Nordrhein-Westfalen, 44532, Deutschland"
  },
  {
    "name": "Unna, Gym Ernst-Barlach",
    "schultyp": "Gymnasium",
    "sozialindex": "1",
    "latitude": "51.5305429",
    "longitude": "7.6947257",
    "address": "Ernst-Barlach-Gymnasium, Pestalozzistraße, Unna, Kreis Unna, Nordrhein-Westfalen, 59423, Deutschland"
  },
  {
    "name": "Unna, Gym Pestalozzi",
    "schultyp": "Gymnasium",
    "sozialindex": "2",
    "latitude": "51.5347132",
    "longitude": "7.6990025",
    "address": "Pestalozzi-Gymasium (PGU), 47, Morgenstraße, Unna, Kreis Unna, Nordrhein-Westfalen, 59423, Deutschland"
  },
  {
    "name": "Bergkamen, Gym Hubert-Biernat-Str.",
    "schultyp": "Gymnasium",
    "sozialindex": "3",
    "latitude": "51.6159332",
    "longitude": "7.6232685",
    "address": "Städtisches Gymnasium Bergkamen, Hubert-Biernat-Straße, Bergkamen, Kreis Unna, Nordrhein-Westfalen, 59192, Deutschland"
  },
  {
    "name": "Selm, Gym Campus",
    "schultyp": "Gymnasium",
    "sozialindex": "3",
    "latitude": "51.6966239",
    "longitude": "7.4644878",
    "address": "Campus, Beifang, Selm, Kreis Unna, Nordrhein-Westfalen, 59379, Deutschland"
  },
  {
    "name": "Holzwickede, Gym Clara-Schumann",
    "schultyp": "Gymnasium",
    "sozialindex": "2",
    "latitude": "51.4964018",
    "longitude": "7.6251038",
    "address": "Clara-Schumann-Gymnasium, Im Bruch, Hengsen, Holzwickede, Kreis Unna, Nordrhein-Westfalen, 59439, Deutschland"
  },
  {
    "name": "Bönen, Gym Marie-Curie",
    "schultyp": "Gymnasium",
    "sozialindex": "2",
    "latitude": "51.6028938",
    "longitude": "7.7644572",
    "address": "Marie-Curie-Gymnasium, 5, Billy-Montigny-Platz, Alt-Bönen, Bönen, Kreis Unna, Nordrhein-Westfalen, 59199, Deutschland"
  },
  {
    "name": "Kierspe, GE Otto-Ruhe-Str.",
    "schultyp": "Gesamtschule",
    "sozialindex": "3",
    "latitude": "51.1286916",
    "longitude": "7.5953488",
    "address": "Otto-Ruhe-Straße, Höferhof, Kierspe-Dorf, Kierspe, Märkischer Kreis, Nordrhein-Westfalen, 58566, Deutschland"
  },
  {
    "name": "Lüdenscheid, GE Adolf-Reichwein",
    "schultyp": "Gesamtschule",
    "sozialindex": "7",
    "latitude": "51.2341565",
    "longitude": "7.6267411",
    "address": "Adolf-Reichwein-Gesamtschule, 2, Eulenweg, Wehberg, Lüdenscheid, Märkischer Kreis, Nordrhein-Westfalen, 58507, Deutschland"
  },
  {
    "name": "Iserlohn, GE Iserlohn",
    "schultyp": "Gesamtschule",
    "sozialindex": "5",
    "latitude": "51.3894464",
    "longitude": "7.7003282",
    "address": "Märkisches Gymnasium Iserlohn, Schulhof Schulzentrum, Iserlohner Heide, Nußberg, Iserlohn, Märkischer Kreis, Nordrhein-Westfalen, 58636, Deutschland"
  },
  {
    "name": "Werdohl, GE Albert-Einstein",
    "schultyp": "Gesamtschule",
    "sozialindex": "4",
    "latitude": "",
    "longitude": "",
    "address": ""
  },
  {
    "name": "Hemer, GE Europaschule am Friedenspark",
    "schultyp": "Gesamtschule",
    "sozialindex": "3",
    "latitude": "",
    "longitude": "",
    "address": ""
  },
  {
    "name": "Menden, GE Windthorststraße",
    "schultyp": "Gesamtschule",
    "sozialindex": "4",
    "latitude": "51.4305634",
    "longitude": "7.7931116",
    "address": "Gesamtschule Menden, 3, Windthorststraße, Menden (Sauerland), Märkischer Kreis, Nordrhein-Westfalen, 58706, Deutschland"
  },
  {
    "name": "Iserlohn, GE Seilersee",
    "schultyp": "Gesamtschule",
    "sozialindex": "4",
    "latitude": "51.3841047",
    "longitude": "7.7185328",
    "address": "Gesamtschule Seilersee, Reiterweg, Iserlohn, Märkischer Kreis, Nordrhein-Westfalen, 58636, Deutschland"
  },
  {
    "name": "Iserlohn, Gym Märkisches",
    "schultyp": "Gymnasium",
    "sozialindex": "2",
    "latitude": "51.3894464",
    "longitude": "7.7003282",
    "address": "Märkisches Gymnasium Iserlohn, Schulhof Schulzentrum, Iserlohner Heide, Nußberg, Iserlohn, Märkischer Kreis, Nordrhein-Westfalen, 58636, Deutschland"
  },
  {
    "name": "Iserlohn, Gym An der Stenner",
    "schultyp": "Gymnasium",
    "sozialindex": "4",
    "latitude": "51.3781245",
    "longitude": "7.6974884",
    "address": "Gymnasium An der Stenner, Gartenstraße, Nußberg, Iserlohn, Märkischer Kreis, Nordrhein-Westfalen, 58636, Deutschland"
  },
  {
    "name": "Altena, Gym Burggymnasium",
    "schultyp": "Gymnasium",
    "sozialindex": "3",
    "latitude": "51.2985074",
    "longitude": "7.6696324",
    "address": "Burggymnasium Altena, 10, Bismarckstraße, Mühlendorf, Altena, Märkischer Kreis, Nordrhein-Westfalen, 58762, Deutschland"
  },
  {
    "name": "Plettenberg, Gym Albert-Schweitzer",
    "schultyp": "Gymnasium",
    "sozialindex": "2",
    "latitude": "51.2319909",
    "longitude": "7.8562828",
    "address": "Albert-Schweitzer-Gymnasium, 2, Albert-Schweitzer-Straße, Böddinghausen, Ohle, Plettenberg, Märkischer Kreis, Nordrhein-Westfalen, 58840, Deutschland"
  },
  {
    "name": "Halver, Gym Anne-Frank",
    "schultyp": "Gymnasium",
    "sozialindex": "2",
    "latitude": "51.1839104",
    "longitude": "7.4914442",
    "address": "Anne-Frank-Gymnasium, Kantstraße, Neuemühle, Halver, Märkischer Kreis, Nordrhein-Westfalen, 58553, Deutschland"
  },
  {
    "name": "Lüdenscheid, Gym Bergstadt",
    "schultyp": "Gymnasium",
    "sozialindex": "3",
    "latitude": "51.2203789",
    "longitude": "7.6453725",
    "address": "Bergstadt-Gymnasium, 5, Saarlandstraße, Honsel, Lüdenscheid, Märkischer Kreis, Nordrhein-Westfalen, 58511, Deutschland"
  },
  {
    "name": "Lüdenscheid, Gym Geschwister-Scholl",
    "schultyp": "Gymnasium",
    "sozialindex": "3",
    "latitude": "51.2131061",
    "longitude": "7.6347996",
    "address": "Geschwister-Scholl-Gymnasium, 27-29, Hochstraße, Staberg, Lüdenscheid, Märkischer Kreis, Nordrhein-Westfalen, 58511, Deutschland"
  },
  {
    "name": "Lüdenscheid, Gym Zeppelin-Gymnasium",
    "schultyp": "Gymnasium",
    "sozialindex": "4",
    "latitude": "51.212941",
    "longitude": "7.6361712",
    "address": "Zeppelin-Gymnasium, 10, Staberger Straße, Staberg, Lüdenscheid, Märkischer Kreis, Nordrhein-Westfalen, 58511, Deutschland"
  },
  {
    "name": "Iserlohn, Gym Letmathe",
    "schultyp": "Gymnasium",
    "sozialindex": "1",
    "latitude": "51.3654894",
    "longitude": "7.6163087",
    "address": "Realschule Letmathe (Zweitgebäude), 2, Reinickendorfer Straße, Letmathe, Iserlohn, Märkischer Kreis, Nordrhein-Westfalen, 58642, Deutschland"
  },
  {
    "name": "Hemer, Gym Friedrich-Leopold-Woeste",
    "schultyp": "Gymnasium",
    "sozialindex": "2",
    "latitude": "51.3850372",
    "longitude": "7.7563161",
    "address": "Friedrich-Leopold-Woeste-Gymnasium, Feldstraße, Niederhemer, Höcklingsen, Hemer, Märkischer Kreis, Nordrhein-Westfalen, 58675, Deutschland"
  },
  {
    "name": "Menden, Gym an der Hönne",
    "schultyp": "Gymnasium",
    "sozialindex": "2",
    "latitude": "51.4344791",
    "longitude": "7.7967667",
    "address": "Städtisches Gymnasium an der Hönne, 2, Walramstraße, Menden (Sauerland), Märkischer Kreis, Nordrhein-Westfalen, 58706, Deutschland"
  },
  {
    "name": "Bochum, GE Bochum-Mitte",
    "schultyp": "Gesamtschule",
    "sozialindex": "8",
    "latitude": "51.4945855",
    "longitude": "7.2070245",
    "address": "Gesamtschule Bochum-Mitte, 94, Feldsieper Straße, Hamme, Bochum-Mitte, Bochum, Nordrhein-Westfalen, 44809, Deutschland"
  },
  {
    "name": "Bochum, GE Erich Kästner",
    "schultyp": "Gesamtschule",
    "sozialindex": "4",
    "latitude": "51.4508728",
    "longitude": "7.2452595",
    "address": "Erich-Kästner-Schule, 189, Markstraße, Querenburg, Bochum-Süd, Bochum, Nordrhein-Westfalen, 44799, Deutschland"
  },
  {
    "name": "Bochum, GE Heinrich-Böll-Schule",
    "schultyp": "Gesamtschule",
    "sozialindex": "5",
    "latitude": "51.4968709",
    "longitude": "7.2186059",
    "address": "Heinrich-Böll-Gesamtschule Bochum, Lessingstraße, Grumme, Bochum-Mitte, Bochum, Nordrhein-Westfalen, 44791, Deutschland"
  },
  {
    "name": "Bochum, GE Willy-Brandt",
    "schultyp": "Gesamtschule",
    "sozialindex": "7",
    "latitude": "51.4846269",
    "longitude": "7.301282",
    "address": "Willy-Brandt-Gesamtschule, Heinrich-Gustav-Straße, Werne, Bochum-Ost, Bochum, Nordrhein-Westfalen, 44894, Deutschland"
  },
  {
    "name": "Bochum, GE Maria Sibylla Merian Schule",
    "schultyp": "Gesamtschule",
    "sozialindex": "6",
    "latitude": "51.4704232",
    "longitude": "7.1496849",
    "address": "Maria Sibylla Merian Gesamtschule, 15, Lohackerstraße, Westenfeld, Bochum-Wattenscheid, Bochum, Nordrhein-Westfalen, 44867, Deutschland"
  },
  {
    "name": "Bochum, Gym Hildegardis-Gymnasium",
    "schultyp": "Gymnasium",
    "sozialindex": "3",
    "latitude": "51.4863303",
    "longitude": "7.227728",
    "address": "Hildegardis-Gymnasium Bochum, 1, Klinikstraße, Innenstadt, Bochum-Mitte, Bochum, Nordrhein-Westfalen, 44791, Deutschland"
  },
  {
    "name": "Bochum, Gym Graf-Engelbert-Gymnasium",
    "schultyp": "Gymnasium",
    "sozialindex": "2",
    "latitude": "51.4662929",
    "longitude": "7.2202622",
    "address": "Graf-Engelbert-Gymnasium, 77-79, Königsallee, Ehrenfeld, Wiemelhausen, Bochum-Mitte, Bochum, Nordrhein-Westfalen, 44789, Deutschland"
  },
  {
    "name": "Bochum, Gym Schiller",
    "schultyp": "Gymnasium",
    "sozialindex": "1",
    "latitude": "51.4636256",
    "longitude": "7.2209842",
    "address": "Schiller-Schule, 71, Waldring, Wiemelhausen, Bochum-Süd, Bochum, Nordrhein-Westfalen, 44789, Deutschland"
  },
  {
    "name": "Bochum, Gym Lessing-Gymnasium",
    "schultyp": "Gymnasium",
    "sozialindex": "3",
    "latitude": "51.4718894",
    "longitude": "7.31634",
    "address": "Lessing-Gymnasium, 12, Ottilienstraße, Langendreer, Bochum-Ost, Bochum, Nordrhein-Westfalen, 44892, Deutschland"
  },
  {
    "name": "Bochum, Gym Goethe",
    "schultyp": "Gymnasium",
    "sozialindex": "3",
    "latitude": "51.4862233",
    "longitude": "7.2193393",
    "address": "Goethe-Schule, 1, Goetheplatz, Innenstadt, Bochum-Mitte, Bochum, Nordrhein-Westfalen, 44791, Deutschland"
  },
  {
    "name": "Bochum, Gym Theodor-Körner",
    "schultyp": "Gymnasium",
    "sozialindex": "1",
    "latitude": "51.4276416",
    "longitude": "7.1511762",
    "address": "Theodor-Körner Schule, 42-48, Keilstraße, Dahlhausen, Bochum-Südwest, Bochum, Nordrhein-Westfalen, 44879, Deutschland"
  },
  {
    "name": "Bochum, Gym Heinrich-v.-Kleist-Gymnasium",
    "schultyp": "Gymnasium",
    "sozialindex": "3",
    "latitude": "",
    "longitude": "",
    "address": ""
  },
  {
    "name": "Bochum, Gym Märkisches Gymnasium",
    "schultyp": "Gymnasium",
    "sozialindex": "4",
    "latitude": "51.4778592",
    "longitude": "7.1364782",
    "address": "Märkisches Gymnasium Wattenscheid, 42-44, Saarlandstraße, Wattenscheid, Bochum-Wattenscheid, Bochum, Nordrhein-Westfalen, 44866, Deutschland"
  },
  {
    "name": "Bochum, Gym Hellweg Europaschule",
    "schultyp": "Gymnasium",
    "sozialindex": "3",
    "latitude": "51.4863303",
    "longitude": "7.227728",
    "address": "Hildegardis-Gymnasium Bochum, 1, Klinikstraße, Innenstadt, Bochum-Mitte, Bochum, Nordrhein-Westfalen, 44791, Deutschland"
  },
  {
    "name": "Bochum, Gym Neues Gymnasium",
    "schultyp": "Gymnasium",
    "sozialindex": "2",
    "latitude": "51.4676705",
    "longitude": "7.2316495",
    "address": "Neues Gymnasium Bochum, 45, Querenburger Straße, Wiemelhausen, Bochum-Mitte, Bochum, Nordrhein-Westfalen, 44789, Deutschland"
  },
  {
    "name": "Dortmund, GE Reinoldi-Gesamtschule",
    "schultyp": "Gesamtschule",
    "sozialindex": "6",
    "latitude": "51.545239",
    "longitude": "7.3685689",
    "address": "Reinoldi-Gesamtschule, 107, Im Odemsloh, Westerfilde, Mengede, Dortmund, Nordrhein-Westfalen, 44357, Deutschland"
  },
  {
    "name": "Dortmund, GE im Süden",
    "schultyp": "Gesamtschule",
    "sozialindex": "4",
    "latitude": "",
    "longitude": "",
    "address": ""
  },
  {
    "name": "Dortmund, GE Scharnhorst",
    "schultyp": "Gesamtschule",
    "sozialindex": "7",
    "latitude": "51.5506694",
    "longitude": "7.5453053",
    "address": "Gesamtschule Scharnhorst, Hesseweg, Scharnhorst-Ost, Scharnhorst, Dortmund, Nordrhein-Westfalen, 44328, Deutschland"
  },
  {
    "name": "Dortmund, GE Heinrich-Böll",
    "schultyp": "Gesamtschule",
    "sozialindex": "6",
    "latitude": "51.5036818",
    "longitude": "7.3361254",
    "address": "Heinrich-Böll-Gesamtschule, Westricher Straße, Somborn, Lütgendortmund, Dortmund, Nordrhein-Westfalen, 44388, Deutschland"
  },
  {
    "name": "Dortmund, GE Geschwister-Scholl",
    "schultyp": "Gesamtschule",
    "sozialindex": "4",
    "latitude": "51.5295718",
    "longitude": "7.554476",
    "address": "Geschwister-Scholl-Gesamtschule, 3-5, Haferfeldstraße, Brackeler Feld, Brackel, Dortmund, Nordrhein-Westfalen, 44309, Deutschland"
  },
  {
    "name": "Dortmund, GE Anne-Frank-Schule",
    "schultyp": "Gesamtschule",
    "sozialindex": "9",
    "latitude": "51.5305919",
    "longitude": "7.4628579",
    "address": "Anne-Frank-Gesamtschule, Carl-Holtschneider-Straße, Nordmarkt, Innenstadt Nord, Dortmund, Nordrhein-Westfalen, 44145, Deutschland"
  },
  {
    "name": "Dortmund, GE Gartenstadt",
    "schultyp": "Gesamtschule",
    "sozialindex": "8",
    "latitude": "51.4995272",
    "longitude": "7.5038346",
    "address": "Gesamtschule Gartenstadt, Schwarze-Becker-Straße, Gartenstadt, Innenstadt Ost, Dortmund, Nordrhein-Westfalen, 44141, Deutschland"
  },
  {
    "name": "Dortmund, GE Gustav-Heinemann",
    "schultyp": "Gesamtschule",
    "sozialindex": "8",
    "latitude": "51.5337093",
    "longitude": "7.4063159",
    "address": "Gustav-Heinemann-Gesamtschule, Wispelbreite, Mailoh, Huckarde, Dortmund, Nordrhein-Westfalen, 44369, Deutschland"
  },
  {
    "name": "Dortmund, GE Brünninghausen",
    "schultyp": "Gesamtschule",
    "sozialindex": "3",
    "latitude": "51.4805172",
    "longitude": "7.4561824",
    "address": "Gesamtschule Brünninghausen, 15, Klüsenerskamp, Hombruch, Brünninghausen, Hombruch, Dortmund, Nordrhein-Westfalen, 44225, Deutschland"
  },
  {
    "name": "Dortmund, GE Martin-Luther-King",
    "schultyp": "Gesamtschule",
    "sozialindex": "7",
    "latitude": "51.5017194",
    "longitude": "7.4054019",
    "address": "Martin-Luther-King-Gesamtschule, Fine Frau, Oberdorstfeld, Innenstadt West, Dortmund, Nordrhein-Westfalen, 44149, Deutschland"
  },
  {
    "name": "Dortmund, GE Europaschule",
    "schultyp": "Gesamtschule",
    "sozialindex": "4",
    "latitude": "51.5116805",
    "longitude": "7.5323452",
    "address": "Europaschule Dortmund, 64, Am Gottesacker, Wambel, Brackel, Dortmund, Nordrhein-Westfalen, 44143, Deutschland"
  },
  {
    "name": "Dortmund, Gym Bert-Brecht-Gymnasium",
    "schultyp": "Gymnasium",
    "sozialindex": "3",
    "latitude": "51.517881",
    "longitude": "7.3611255",
    "address": "Bert-Brecht-Gymnasium, 5, Sumbecks Holz, Hangeney, Kirchlinde, Huckarde, Dortmund, Nordrhein-Westfalen, 44379, Deutschland"
  },
  {
    "name": "Dortmund, Gym Heisenberg",
    "schultyp": "Gymnasium",
    "sozialindex": "5",
    "latitude": "51.553311",
    "longitude": "7.4957741",
    "address": "Heisenberg Gymnasium, Derner Straße, Kemminghausen, Eving, Dortmund, Nordrhein-Westfalen, 44339, Deutschland"
  },
  {
    "name": "Dortmund, Gym Immanuel-Kant",
    "schultyp": "Gymnasium",
    "sozialindex": "3",
    "latitude": "51.5319404",
    "longitude": "7.5952493",
    "address": "Immanuel-Kant-Gymnasium, 42, Grüningsweg, Asseln-Süd, Asseln, Brackel, Dortmund, Nordrhein-Westfalen, 44319, Deutschland"
  },
  {
    "name": "Dortmund, Gym Max-Planck-Gymnasium",
    "schultyp": "Gymnasium",
    "sozialindex": "2",
    "latitude": "51.4898492",
    "longitude": "7.4605139",
    "address": "Max-Planck-Gymnasium, 70-72, Ardeystraße, Innenstadt Ost, Dortmund, Nordrhein-Westfalen, 44139, Deutschland"
  },
  {
    "name": "Dortmund, Gym Helene-Lange",
    "schultyp": "Gymnasium",
    "sozialindex": "2",
    "latitude": "51.4748223",
    "longitude": "7.450762",
    "address": "Helene-Lange-Gymnasium, 55a, Am Hombruchsfeld, Hombruch, Kirchhörde, Hombruch, Dortmund, Nordrhein-Westfalen, 44225, Deutschland"
  },
  {
    "name": "Dortmund, Gym Käthe-Kollwitz",
    "schultyp": "Gymnasium",
    "sozialindex": "3",
    "latitude": "51.5102825",
    "longitude": "7.4721548",
    "address": "Käthe-Kollwitz-Gymnasium, Rosental, Mitte, Innenstadt West, Dortmund, Nordrhein-Westfalen, 44135, Deutschland"
  },
  {
    "name": "Dortmund, Gym Stadtgymnasium Dortmund",
    "schultyp": "Gymnasium",
    "sozialindex": "6",
    "latitude": "51.5113834",
    "longitude": "7.473218",
    "address": "Stadtgymnasium, Ostwall, Mitte, Innenstadt West, Dortmund, Nordrhein-Westfalen, 44135, Deutschland"
  },
  {
    "name": "Dortmund, Gym Reinoldus u. Schiller",
    "schultyp": "Gymnasium",
    "sozialindex": "4",
    "latitude": "51.5267628",
    "longitude": "7.4592778",
    "address": "Helmholtz-Gymnasium Dortmund, 122, Münsterstraße, Nordmarkt, Innenstadt Nord, Dortmund, Nordrhein-Westfalen, 44145, Deutschland"
  },
  {
    "name": "Dortmund, Gym Schweizer Allee",
    "schultyp": "Gymnasium",
    "sozialindex": "2",
    "latitude": "51.4915923",
    "longitude": "7.5646596",
    "address": "Gymnasium an der Schweizer Allee, 18-20, Schweizer Allee, Aplerbeck, Dortmund, Nordrhein-Westfalen, 44287, Deutschland"
  },
  {
    "name": "Dortmund, Gym Leibniz",
    "schultyp": "Gymnasium",
    "sozialindex": "3",
    "latitude": "51.501202",
    "longitude": "7.4419695",
    "address": "Leibniz-Gymnasium | Dortmund International School, 163, Kreuzstraße, Kreuzviertel, Innenstadt West, Dortmund, Nordrhein-Westfalen, 44137, Deutschland"
  },
  {
    "name": "Dortmund, Gym Goethe",
    "schultyp": "Gymnasium",
    "sozialindex": "3",
    "latitude": "51.4798682",
    "longitude": "7.4924666",
    "address": "Goethe-Gymnasium, 12, Stettiner Straße, Pferdebachtal, Wellinghofen, Hörde, Dortmund, Nordrhein-Westfalen, 44263, Deutschland"
  },
  {
    "name": "Dortmund, Gym Helmholtz",
    "schultyp": "Gymnasium",
    "sozialindex": "8",
    "latitude": "51.5267628",
    "longitude": "7.4592778",
    "address": "Helmholtz-Gymnasium Dortmund, 122, Münsterstraße, Nordmarkt, Innenstadt Nord, Dortmund, Nordrhein-Westfalen, 44145, Deutschland"
  },
  {
    "name": "Dortmund, Gym Phoenix",
    "schultyp": "Gymnasium",
    "sozialindex": "3",
    "latitude": "51.4926928",
    "longitude": "7.4999532",
    "address": "Phoenix-Gymnasium, Seekante, Hörde, Dortmund, Nordrhein-Westfalen, 44263, Deutschland"
  },
  {
    "name": "Dortmund, Gym Heinrich-Heine",
    "schultyp": "Gymnasium",
    "sozialindex": "4",
    "latitude": "51.5588554",
    "longitude": "7.3903767",
    "address": "Heinrich-Heine-Gymnasium, 34, Dörwerstraße, Nette, Mengede, Dortmund, Nordrhein-Westfalen, 44359, Deutschland"
  },
  {
    "name": "Hagen, GE Fritz-Steinhoff-Schule",
    "schultyp": "Gesamtschule",
    "sozialindex": "6",
    "latitude": "51.3978261",
    "longitude": "7.4781857",
    "address": "Fritz-Steinhoff-Gesamtschule, Hammersteinstraße, Boele, Hagen-Nord, Hagen, Nordrhein-Westfalen, 58099, Deutschland"
  },
  {
    "name": "Hagen, GE Haspe",
    "schultyp": "Gesamtschule",
    "sozialindex": "6",
    "latitude": "51.3472301",
    "longitude": "7.4172367",
    "address": "Gesamtschule Haspe, 2, Kirmesplatz, Hestert, Haspe, Hagen, Nordrhein-Westfalen, 58135, Deutschland"
  },
  {
    "name": "Hagen, GE Eilpe",
    "schultyp": "Gesamtschule",
    "sozialindex": "5",
    "latitude": "51.3396834",
    "longitude": "7.4894773",
    "address": "Gesamtschule Eilpe, Wörthstraße, Eilperfeld, Eilpe, Eilpe/Dahl, Hagen, Nordrhein-Westfalen, 58091, Deutschland"
  },
  {
    "name": "Hagen, Gym Fichte",
    "schultyp": "Gymnasium",
    "sozialindex": "4",
    "latitude": "51.3560884",
    "longitude": "7.468871",
    "address": "Fichte-Gymnasium, Bergischer Ring, Oberhagen, Mittelstadt, Hagen-Mitte, Hagen, Nordrhein-Westfalen, 58095, Deutschland"
  },
  {
    "name": "Hagen, Gym Albrecht-Dürer",
    "schultyp": "Gymnasium",
    "sozialindex": "3",
    "latitude": "51.3677987",
    "longitude": "7.4836743",
    "address": "Albrecht-Dürer-Gymnasium, 73, Heinitzstraße, Eppenhausen, Hochschulviertel, Hagen-Mitte, Hagen, Nordrhein-Westfalen, 58097, Deutschland"
  },
  {
    "name": "Hagen, Gym Theodor-Heuss",
    "schultyp": "Gymnasium",
    "sozialindex": "3",
    "latitude": "51.3695454",
    "longitude": "7.478115",
    "address": "Theodor-Heuss-Gymnasium, Am Höing, Eppenhausen, Hochschulviertel, Hagen-Mitte, Hagen, Nordrhein-Westfalen, 58097, Deutschland"
  },
  {
    "name": "Hagen, Gym Christian-Rohlfs",
    "schultyp": "Gymnasium",
    "sozialindex": "5",
    "latitude": "51.3517069",
    "longitude": "7.4245725",
    "address": "Christian-Rohlfs-Gymnasium, Am Hasper Bahnhof, Hestert, Haspe, Hagen, Nordrhein-Westfalen, 58135, Deutschland"
  },
  {
    "name": "Hagen, Gym Ricarda-Huch",
    "schultyp": "Gymnasium",
    "sozialindex": "5",
    "latitude": "51.3611193",
    "longitude": "7.4742931",
    "address": "Ricarda-Huch-Gymnasium, 1, Voswinckelstraße, Oberhagen, Mittelstadt, Hagen-Mitte, Hagen, Nordrhein-Westfalen, 58095, Deutschland"
  },
  {
    "name": "Hagen, Gym Hohenlimburg",
    "schultyp": "Gymnasium",
    "sozialindex": "3",
    "latitude": "51.3630634",
    "longitude": "7.5707124",
    "address": "Gymnasium Hohenlimburg, 27, Wiesenstraße, Elsey, Hohenlimburg, Hagen, Nordrhein-Westfalen, 58119, Deutschland"
  },
  {
    "name": "Hamm, GE Arnold-Freymuth-Gesamtschule",
    "schultyp": "Gesamtschule",
    "sozialindex": "6",
    "latitude": "51.2401233",
    "longitude": "6.4010013",
    "address": "Anne-Frank-Gesamtschule Viersen, Unter-Beberich, Hamm, Viersen, Tönisvorst, Kreis Viersen, Nordrhein-Westfalen, 41748, Deutschland"
  },
  {
    "name": "Hamm, GE Friedens",
    "schultyp": "Gesamtschule",
    "sozialindex": "5",
    "latitude": "",
    "longitude": "",
    "address": ""
  },
  {
    "name": "Hamm, GE Sophie-Scholl-Schule",
    "schultyp": "Gesamtschule",
    "sozialindex": "5",
    "latitude": "51.6962744",
    "longitude": "7.749125",
    "address": "Sophie-Scholl-Gesamtschule, Marinestraße, Hövel, Bockum-Hövel, Hamm, Nordrhein-Westfalen, 59075, Deutschland"
  },
  {
    "name": "Hamm, Gym Galilei",
    "schultyp": "Gymnasium",
    "sozialindex": "4",
    "latitude": "51.6904412",
    "longitude": "7.7837116",
    "address": "Galilei-Gymnasium, Pfarrer-Erich-Büscher-Weg, Bockum-Hövel, Hamm, Nordrhein-Westfalen, 59065, Deutschland"
  },
  {
    "name": "Hamm, Gym Beisenkamp-Gymnasium",
    "schultyp": "Gymnasium",
    "sozialindex": "2",
    "latitude": "51.671796",
    "longitude": "7.8308051",
    "address": "Beisenkamp-Gymnasium, 1, Am Beisenkamp, Hamm-Mitte, Hamm, Nordrhein-Westfalen, 59063, Deutschland"
  },
  {
    "name": "Hamm, Gym Hammonense",
    "schultyp": "Gymnasium",
    "sozialindex": "2",
    "latitude": "51.685107",
    "longitude": "7.8199111",
    "address": "Gymnasium Hammonense, Adenauerallee, Hamm-Mitte, Hamm, Nordrhein-Westfalen, 59065, Deutschland"
  },
  {
    "name": "Hamm, Gym Märkisches",
    "schultyp": "Gymnasium",
    "sozialindex": "4",
    "latitude": "51.6634886",
    "longitude": "7.7922063",
    "address": "Märkisches Gymnasium Hamm, Uranusstraße, Daberg, Pelkum, Hamm, Nordrhein-Westfalen, 59067, Deutschland"
  },
  {
    "name": "Hamm, Gym Freiherr-vom-Stein",
    "schultyp": "Gymnasium",
    "sozialindex": "1",
    "latitude": "51.684678",
    "longitude": "7.8852135",
    "address": "Freiherr-vom-Stein Gymnasium, Werner-Figgen-Weg, Werries, Uentrop, Hamm, Nordrhein-Westfalen, 59071, Deutschland"
  },
  {
    "name": "Herne, GE Wanne-Eickel",
    "schultyp": "Gesamtschule",
    "sozialindex": "9",
    "latitude": "51.5305079",
    "longitude": "7.1548001",
    "address": "Gesamtschule Wanne-Eickel, 41, Stöckstraße, Wanne-Bickern, Wanne, Herne, Nordrhein-Westfalen, 44649, Deutschland"
  },
  {
    "name": "Herne, GE Mont-Cenis",
    "schultyp": "Gesamtschule",
    "sozialindex": "7",
    "latitude": "51.5377919",
    "longitude": "7.2468727",
    "address": "Mont-Cenis-Gesamtschule, 180, Mont-Cenis-Straße, Sodingen, Herne, Nordrhein-Westfalen, 44627, Deutschland"
  },
  {
    "name": "Herne, GE Erich-Fried",
    "schultyp": "Gesamtschule",
    "sozialindex": "6",
    "latitude": "51.535803",
    "longitude": "7.2007609",
    "address": "Erich-Fried-Gesamtschule, Grabenstraße, Holsterhausen, Herne-Mitte, Herne, Nordrhein-Westfalen, 44625, Deutschland"
  },
  {
    "name": "Herne, Gym Haranni",
    "schultyp": "Gymnasium",
    "sozialindex": "5",
    "latitude": "51.542395",
    "longitude": "7.2275468",
    "address": "Haranni-Gymnasium, 58, Hermann-Löns-Straße, Herne-Mitte, Herne, Nordrhein-Westfalen, 44623, Deutschland"
  },
  {
    "name": "Herne, Gym Pestalozzi",
    "schultyp": "Gymnasium",
    "sozialindex": "5",
    "latitude": "51.54416",
    "longitude": "7.2127095",
    "address": "Pestalozzi Gymnasium, 6, Harpener Weg, Baukau, Baukau-Ost, Herne-Mitte, Herne, Nordrhein-Westfalen, 44629, Deutschland"
  },
  {
    "name": "Herne, Gym Otto-Hahn",
    "schultyp": "Gymnasium",
    "sozialindex": "3",
    "latitude": "51.5388387",
    "longitude": "7.241408",
    "address": "Otto-Hahn-Gymnasium, 168, Hölkeskampring, Sodingen, Herne, Nordrhein-Westfalen, 44625, Deutschland"
  },
  {
    "name": "Herne, Gym Wanne",
    "schultyp": "Gymnasium",
    "sozialindex": "5",
    "latitude": "51.5305079",
    "longitude": "7.1548001",
    "address": "Gesamtschule Wanne-Eickel, 41, Stöckstraße, Wanne-Bickern, Wanne, Herne, Nordrhein-Westfalen, 44649, Deutschland"
  },
  {
    "name": "Herne, Gym Eickel",
    "schultyp": "Gymnasium",
    "sozialindex": "3",
    "latitude": "51.5305079",
    "longitude": "7.1548001",
    "address": "Gesamtschule Wanne-Eickel, 41, Stöckstraße, Wanne-Bickern, Wanne, Herne, Nordrhein-Westfalen, 44649, Deutschland"
  },
  {
    "name": "Gütersloh, GE an der Ahornallee",
    "schultyp": "Gesamtschule",
    "sozialindex": "3",
    "latitude": "51.927107",
    "longitude": "8.3926477",
    "address": "Gesamtschule an der Ahornallee, Ahornallee, Blankenhagen, Gütersloh, Kreis Gütersloh, Nordrhein-Westfalen, 33330, Deutschland"
  },
  {
    "name": "Gütersloh, GE Anne-Frank-Schule",
    "schultyp": "Gesamtschule",
    "sozialindex": "6",
    "latitude": "51.9078894",
    "longitude": "8.3609286",
    "address": "Anne-Frank-Gesamtschule, Westring, Pavenstädt, Gütersloh, Kreis Gütersloh, Nordrhein-Westfalen, 33334, Deutschland"
  },
  {
    "name": "Borgholzhausen, GE Peter-A.-Böckstiegel",
    "schultyp": "Gesamtschule",
    "sozialindex": "2",
    "latitude": "",
    "longitude": "",
    "address": ""
  },
  {
    "name": "Gütersloh, GE Janusz-Korczak",
    "schultyp": "Gesamtschule",
    "sozialindex": "3",
    "latitude": "51.8844704",
    "longitude": "8.3664482",
    "address": "Janusz Korczak-Gesamtschule, Schledebrückstraße, Kattenstroth, Gütersloh, Kreis Gütersloh, Nordrhein-Westfalen, 33334, Deutschland"
  },
  {
    "name": "Harsewinkel, GE Tecklenburger Weg",
    "schultyp": "Gesamtschule",
    "sozialindex": "3",
    "latitude": "51.9621852",
    "longitude": "8.2192409",
    "address": "Gesamtschule Harsewinkel, 4, Tecklenburger Weg, Harsewinkel, Kreis Gütersloh, Nordrhein-Westfalen, 33428, Deutschland"
  },
  {
    "name": "Herzebrock-Clarholz, GE Von-Zumbusch",
    "schultyp": "Gesamtschule",
    "sozialindex": "3",
    "latitude": "51.8877498",
    "longitude": "8.2453261",
    "address": "Von-Zumbusch-Schule, Am Hallenbad, Herzebrock, Herzebrock-Clarholz, Kreis Gütersloh, Nordrhein-Westfalen, 33442, Deutschland"
  },
  {
    "name": "Rheda-Wiedenbrück, GE Moritz-Fontaine",
    "schultyp": "Gesamtschule",
    "sozialindex": "5",
    "latitude": "51.8480789",
    "longitude": "8.2765656",
    "address": "Moritz-Fontaine-Gesamtschule, Mergelstraße, Rheda, Rheda-Wiedenbrück, Kreis Gütersloh, Nordrhein-Westfalen, 33378, Deutschland"
  },
  {
    "name": "Rietberg, GE Richard-von-Weizsäcker",
    "schultyp": "Gesamtschule",
    "sozialindex": "3",
    "latitude": "51.8096615",
    "longitude": "8.4311892",
    "address": "Richard-von-Weizsäcker-Gesamtschule der Stadt Rietberg, 24, Teichweg, Rietberg, Kreis Gütersloh, Nordrhein-Westfalen, 33397, Deutschland"
  },
  {
    "name": "Verl, GE St.-Anna-Straße",
    "schultyp": "Gesamtschule",
    "sozialindex": "2",
    "latitude": "51.884271",
    "longitude": "8.5033532",
    "address": "Gesamtschule Verl, 28, Sankt-Anna-Straße, Verl, Kreis Gütersloh, Nordrhein-Westfalen, 33415, Deutschland"
  },
  {
    "name": "Schloß Holte-Stukenbrock, GE Jahnstraße",
    "schultyp": "Gesamtschule",
    "sozialindex": "2",
    "latitude": "51.9040072",
    "longitude": "8.6101442",
    "address": "Gesamtschule Schloß Holte-Stukenbrock, 11, Jahnstraße, Schloß Holte, Schloß Holte-Stukenbrock, Kreis Gütersloh, Nordrhein-Westfalen, 33758, Deutschland"
  },
  {
    "name": "Halle, GE Wasserwerkstraße",
    "schultyp": "Gesamtschule",
    "sozialindex": "3",
    "latitude": "52.0492524",
    "longitude": "8.3538725",
    "address": "Gesamtschule Halle Westfalen, Wasserwerkstraße, Gartnisch, Halle (Westf.), Kreis Gütersloh, Nordrhein-Westfalen, 33790, Deutschland"
  },
  {
    "name": "Halle, Gym Kreis",
    "schultyp": "Gymnasium",
    "sozialindex": "2",
    "latitude": "",
    "longitude": "",
    "address": ""
  },
  {
    "name": "Gütersloh, Gym Schulstr.",
    "schultyp": "Gymnasium",
    "sozialindex": "3",
    "latitude": "",
    "longitude": "",
    "address": ""
  },
  {
    "name": "Rheda-Wiedenbrück, Gym Rats",
    "schultyp": "Gymnasium",
    "sozialindex": "2",
    "latitude": "51.8548807",
    "longitude": "8.2878444",
    "address": "Rats-Apotheke, 13, Bahnhofstraße, Rheda, Rheda-Wiedenbrück, Kreis Gütersloh, Nordrhein-Westfalen, 33378, Deutschland"
  },
  {
    "name": "Rheda-Wiedenbrück, Gym Einstein",
    "schultyp": "Gymnasium",
    "sozialindex": "3",
    "latitude": "51.8508306",
    "longitude": "8.2727152",
    "address": "Einstein-Gymnasium, Erich-Kästner-Straße, Rheda, Rheda-Wiedenbrück, Kreis Gütersloh, Nordrhein-Westfalen, 33378, Deutschland"
  },
  {
    "name": "Rietberg, Gym Nepomucenum",
    "schultyp": "Gymnasium",
    "sozialindex": "1",
    "latitude": "51.808953",
    "longitude": "8.4345559",
    "address": "Gymnasium Nepomucenum Rietberg, 65, Torfweg, Rietberg, Kreis Gütersloh, Nordrhein-Westfalen, 33397, Deutschland"
  },
  {
    "name": "Verl, Gym St.-Anna-Straße",
    "schultyp": "Gymnasium",
    "sozialindex": "1",
    "latitude": "51.8827159",
    "longitude": "8.5040697",
    "address": "Sankt-Anna-Straße, Verl, Kreis Gütersloh, Nordrhein-Westfalen, 33415, Deutschland"
  },
  {
    "name": "Harsewinkel, Gym Dechant-Budde-Weg",
    "schultyp": "Gymnasium",
    "sozialindex": "2",
    "latitude": "51.9633289",
    "longitude": "8.2244812",
    "address": "Dechant-Budde-Weg, Harsewinkel, Kreis Gütersloh, Nordrhein-Westfalen, 33428, Deutschland"
  },
  {
    "name": "Steinhagen, Gym Am Cronsbach",
    "schultyp": "Gymnasium",
    "sozialindex": "1",
    "latitude": "51.9994818",
    "longitude": "8.4235097",
    "address": "Am Cronsbach, Steinhagen, Kreis Gütersloh, Nordrhein-Westfalen, 33803, Deutschland"
  },
  {
    "name": "Schloß Holte-Stukenbrock, Gym Holter Str",
    "schultyp": "Gymnasium",
    "sozialindex": "1",
    "latitude": "51.90101",
    "longitude": "8.634783",
    "address": "Gymnasium Schloß Holte-Stukenbrock, Holter Straße, Stukenbrock, Schloß Holte-Stukenbrock, Kreis Gütersloh, Nordrhein-Westfalen, 33758, Deutschland"
  },
  {
    "name": "Hiddenhausen, GE Olof-Palme",
    "schultyp": "Gesamtschule",
    "sozialindex": "2",
    "latitude": "52.1526281",
    "longitude": "8.6359633",
    "address": "Olof-Palme-Gesamtschule, 5, Pestalozzistraße, Lippinghausen, Hiddenhausen, Kreis Herford, Nordrhein-Westfalen, 32120, Deutschland"
  },
  {
    "name": "Herford, GE Salzufler Str.",
    "schultyp": "Gesamtschule",
    "sozialindex": "7",
    "latitude": "52.1136233",
    "longitude": "8.6814714",
    "address": "Salzufler Straße, Stiftberg, Neustädter Feldmark, Herford, Kreis Herford, Nordrhein-Westfalen, 32052, Deutschland"
  },
  {
    "name": "Bünde, GE Erich Kästner-Gesamtschule",
    "schultyp": "Gesamtschule",
    "sozialindex": "3",
    "latitude": "52.2054945",
    "longitude": "8.5597182",
    "address": "Erich Kästner Gesamtschule, Ravensberger Straße, Ennigloh, Gewinghausen, Bünde, Kreis Herford, Nordrhein-Westfalen, 32257, Deutschland"
  },
  {
    "name": "Löhne, GE Bertolt-Brecht",
    "schultyp": "Gesamtschule",
    "sozialindex": "4",
    "latitude": "52.2205817",
    "longitude": "8.7098752",
    "address": "Bertolt-Brecht-Gesamtschule, Zur Schule, Mennighüffen, Westscheid, Löhne, Kreis Herford, Nordrhein-Westfalen, 32584, Deutschland"
  },
  {
    "name": "Spenge, GE Regenbogen",
    "schultyp": "Gesamtschule",
    "sozialindex": "3",
    "latitude": "52.1444506",
    "longitude": "8.4869861",
    "address": "Regenbogen-Gesamtschule Spenge, Charlottenburg, Spenge, Hückerkreuz, Spenge, Kreis Herford, Nordrhein-Westfalen, 32139, Deutschland"
  },
  {
    "name": "Rödinghausen, GE An der Stertwelle",
    "schultyp": "Gesamtschule",
    "sozialindex": "2",
    "latitude": "52.2476137",
    "longitude": "8.5056908",
    "address": "Gesamtschule Rödinghausen, An der Stertwelle, Schwenningdorf, Rödinghausen, Kreis Herford, Nordrhein-Westfalen, 32289, Deutschland"
  },
  {
    "name": "Bünde, Gym am Markt",
    "schultyp": "Gymnasium",
    "sozialindex": "2",
    "latitude": "52.1949625",
    "longitude": "8.5854148",
    "address": "Gymnasium am Markt, 12, Marktstraße, Bünde-Mitte, Bünde, Kreis Herford, Nordrhein-Westfalen, 32257, Deutschland"
  },
  {
    "name": "Bünde, Gym Freiherr-vom-Stein",
    "schultyp": "Gymnasium",
    "sozialindex": "1",
    "latitude": "52.2051085",
    "longitude": "8.5569154",
    "address": "Freiherr vom Stein Gymnasium, Ringstraße, Ennigloh, Gewinghausen, Bünde, Kreis Herford, Nordrhein-Westfalen, 32257, Deutschland"
  },
  {
    "name": "Enger, Gym Widukind",
    "schultyp": "Gymnasium",
    "sozialindex": "1",
    "latitude": "52.1415079",
    "longitude": "8.5484871",
    "address": "Widukind-Gymnasium Enger, 22, Tiefenbruchstraße, Enger, Kreis Herford, Nordrhein-Westfalen, 32130, Deutschland"
  },
  {
    "name": "Herford, Gym Ravensberger",
    "schultyp": "Gymnasium",
    "sozialindex": "2",
    "latitude": "52.1205752",
    "longitude": "8.6777407",
    "address": "Ravensberger Gymnasium, 10, Werrestraße, Stiftberg, Herford-Stadt, Herford, Kreis Herford, Nordrhein-Westfalen, 32049, Deutschland"
  },
  {
    "name": "Herford, Gym Königin-Mathilde",
    "schultyp": "Gymnasium",
    "sozialindex": "2",
    "latitude": "52.1165944",
    "longitude": "8.6893766",
    "address": "Königin-Mathilde-Gymnasium, Kattenschling, Stiftberg, Herford-Stadt, Herford, Kreis Herford, Nordrhein-Westfalen, 32049, Deutschland"
  },
  {
    "name": "Herford, Gym Friedrichs",
    "schultyp": "Gymnasium",
    "sozialindex": "2",
    "latitude": "52.1206052",
    "longitude": "8.6738574",
    "address": "Friedrichs Gymnasium Herford, Rischmüllerufer, Neustädter Feldmark, Herford, Kreis Herford, Nordrhein-Westfalen, 32049, Deutschland"
  },
  {
    "name": "Löhne, Gym Albert-Schweitzer-Str.",
    "schultyp": "Gymnasium",
    "sozialindex": "2",
    "latitude": "52.2035989",
    "longitude": "8.7205418",
    "address": "Städtisches Gymnasium Löhne, 16, Albert-Schweitzer-Straße, Ulenburg, Löhne, Kreis Herford, Nordrhein-Westfalen, 32584, Deutschland"
  },
  {
    "name": "Vlotho, Gym Weser",
    "schultyp": "Gymnasium",
    "sozialindex": "1",
    "latitude": "52.1638935",
    "longitude": "8.8698711",
    "address": "Weser-Gymnasium Vlotho, 12, Prof.-Domagk-Straße, Winterberg, Vlotho, Kreis Herford, Nordrhein-Westfalen, 32602, Deutschland"
  },
  {
    "name": "Bad Driburg, GE Geschwister-Scholl-Str.",
    "schultyp": "Gesamtschule",
    "sozialindex": "4",
    "latitude": "51.7270239",
    "longitude": "9.0203912",
    "address": "Geschwister-Scholl-Straße, Widukind-Siedlung, Bad Driburg, Kreis Höxter, Nordrhein-Westfalen, 33014, Deutschland"
  },
  {
    "name": "Brakel, GE Am Bahndamm",
    "schultyp": "Gesamtschule",
    "sozialindex": "2",
    "latitude": "51.7136965",
    "longitude": "9.184974",
    "address": "Gesamtschule Brakel, Am Bahndamm, Brakel, Kreis Höxter, Nordrhein-Westfalen, 33034, Deutschland"
  },
  {
    "name": "Höxter, Gym König-Wilhelm",
    "schultyp": "Gymnasium",
    "sozialindex": "2",
    "latitude": "51.7764442",
    "longitude": "9.3715188",
    "address": "König-Wilhelm-Gymnasium, 11, Im Flor, Höxter, Kreis Höxter, Nordrhein-Westfalen, 37671, Deutschland"
  },
  {
    "name": "Warburg, Gym Marianum",
    "schultyp": "Gymnasium",
    "sozialindex": "1",
    "latitude": "51.4871431",
    "longitude": "9.1489505",
    "address": "Gymnasium Marianum, 7, Hinter der Mauer Süd, Warburg, Kreis Höxter, Nordrhein-Westfalen, 34414, Deutschland"
  },
  {
    "name": "Warburg, Gym Hüffert",
    "schultyp": "Gymnasium",
    "sozialindex": "1",
    "latitude": "51.4891992",
    "longitude": "9.1393779",
    "address": "Hüffertstraße, Warburg, Kreis Höxter, Nordrhein-Westfalen, 34414, Deutschland"
  },
  {
    "name": "Steinheim, Gym Stettiner Str.",
    "schultyp": "Gymnasium",
    "sozialindex": "1",
    "latitude": "51.8758064",
    "longitude": "9.0829776",
    "address": "Stettiner Straße, Steinheim, Kreis Höxter, Nordrhein-Westfalen, 32839, Deutschland"
  },
  {
    "name": "Beverungen, Gym Birkenstraße",
    "schultyp": "Gymnasium",
    "sozialindex": "2",
    "latitude": "51.6663324",
    "longitude": "9.3683377",
    "address": "Städt. Gymnasium Beverungen, 5, Birkenstraße, Beverungen, Kreis Höxter, Nordrhein-Westfalen, 37688, Deutschland"
  },
  {
    "name": "Leopoldshöhe, GE Felix-Fechenbach",
    "schultyp": "Gesamtschule",
    "sozialindex": "1",
    "latitude": "52.0186491",
    "longitude": "8.6907463",
    "address": "Felix-Fechenbach-Gesamtschule, 25, Schulstraße, Leopoldshöhe, Kreis Lippe, Nordrhein-Westfalen, 33818, Deutschland"
  },
  {
    "name": "Detmold, GE Geschwister-Scholl",
    "schultyp": "Gesamtschule",
    "sozialindex": "5",
    "latitude": "51.939593",
    "longitude": "8.8547409",
    "address": "Geschwister-Scholl-Gesamtschule, 9, Sprottauer Straße, Hiddeser Berg, Detmold-Süd, Detmold, Kreis Lippe, Nordrhein-Westfalen, 32756, Deutschland"
  },
  {
    "name": "Lemgo, GE Karla-Raveh",
    "schultyp": "Gesamtschule",
    "sozialindex": "2",
    "latitude": "52.0353384",
    "longitude": "8.9125276",
    "address": "Karla-Raveh-Gesamtschule, 31, Vogelsang, Spiegelberg, Lemgo, Kreis Lippe, Nordrhein-Westfalen, 32657, Deutschland"
  },
  {
    "name": "Bad Salzuflen, GE Schulzentrum Aspe",
    "schultyp": "Gesamtschule",
    "sozialindex": "5",
    "latitude": "52.0640525",
    "longitude": "8.7334421",
    "address": "Schulzentrum Aspe, 5, Paul-Schneider-Straße, Werl-Aspe, Knetterheide, Bad Salzuflen, Kreis Lippe, Nordrhein-Westfalen, 32107, Deutschland"
  },
  {
    "name": "Blomberg, Gym Hermann-Vöchting",
    "schultyp": "Gymnasium",
    "sozialindex": "1",
    "latitude": "51.9469398",
    "longitude": "9.1055911",
    "address": "Hermann-Vöchting-Gymnasium, 20, Ostring, Blomberg, Kreis Lippe, Nordrhein-Westfalen, 32825, Deutschland"
  },
  {
    "name": "Detmold, Gym Martin-Luther-Str.",
    "schultyp": "Gymnasium",
    "sozialindex": "2",
    "latitude": "51.9348288",
    "longitude": "8.8585945",
    "address": "Martin-Luther-Straße, Hiddeser Berg, Detmold-Süd, Detmold, Kreis Lippe, Nordrhein-Westfalen, 32756, Deutschland"
  },
  {
    "name": "Detmold, Gym Leopoldinum",
    "schultyp": "Gymnasium",
    "sozialindex": "2",
    "latitude": "51.9313881",
    "longitude": "8.8834811",
    "address": "Gymnasium Leopoldinum, Hornsche Straße, Detmold-Nord, Detmold, Kreis Lippe, Nordrhein-Westfalen, 32756, Deutschland"
  },
  {
    "name": "Detmold, Gym Christian-Dietrich-Grabbe",
    "schultyp": "Gymnasium",
    "sozialindex": "2",
    "latitude": "",
    "longitude": "",
    "address": ""
  },
  {
    "name": "Lage, Gym Gebrüder Humboldt",
    "schultyp": "Gymnasium",
    "sozialindex": "3",
    "latitude": "",
    "longitude": "",
    "address": ""
  },
  {
    "name": "Barntrup, Gym Große Twete",
    "schultyp": "Gymnasium",
    "sozialindex": "2",
    "latitude": "51.9874024",
    "longitude": "9.1180823",
    "address": "Städtisches Gymnasium Barntrup, 5, Große Twete, Bellenbruch, Barntrup, Kreis Lippe, Nordrhein-Westfalen, 32683, Deutschland"
  },
  {
    "name": "Lemgo, Gym Marianne-Weber-Gymnasium",
    "schultyp": "Gymnasium",
    "sozialindex": "2",
    "latitude": "52.0324107",
    "longitude": "8.8958409",
    "address": "Marianne-Weber-Gymnasium, 34, Franz-Liszt-Straße, Innenstadt, Lemgo, Kreis Lippe, Nordrhein-Westfalen, 32657, Deutschland"
  },
  {
    "name": "Lemgo, Gym Engelbert-Kaempfer",
    "schultyp": "Gymnasium",
    "sozialindex": "2",
    "latitude": "52.0271555",
    "longitude": "8.8960322",
    "address": "Engelbert-Kaempfer-Gymnasium, Hinter dem Kloster, Innenstadt, Lemgo, Kreis Lippe, Nordrhein-Westfalen, 32657, Deutschland"
  },
  {
    "name": "Oerlinghausen, Gym Niklas-Luhmann",
    "schultyp": "Gymnasium",
    "sozialindex": "1",
    "latitude": "51.962723",
    "longitude": "8.6600077",
    "address": "Niklas-Luhmann-Gymnasium, Ravensberger Straße, Oerlinghausen, Kreis Lippe, Nordrhein-Westfalen, 33813, Deutschland"
  },
  {
    "name": "Bad Salzuflen, Gym Rudolph-Brandes",
    "schultyp": "Gymnasium",
    "sozialindex": "3",
    "latitude": "52.0771974",
    "longitude": "8.7636738",
    "address": "Rudolph-Brandes-Gymnasium, 25e, Wasserfuhr, Schötmar, Ehrsen, Bad Salzuflen, Kreis Lippe, Nordrhein-Westfalen, 32108, Deutschland"
  },
  {
    "name": "Horn-Bad Meinberg, Gym Südholzweg",
    "schultyp": "Gymnasium",
    "sozialindex": "2",
    "latitude": "51.8666158",
    "longitude": "8.9411954",
    "address": "Gymnasium Horn-Bad Meinberg, Südholzweg, Horn, Horn-Bad Meinberg, Kreis Lippe, Nordrhein-Westfalen, 32805, Deutschland"
  },
  {
    "name": "Minden, GE Kurt-Tucholsky",
    "schultyp": "Gesamtschule",
    "sozialindex": "8",
    "latitude": "52.2889337",
    "longitude": "8.9100845",
    "address": "Kurt-Tucholsky-Gesamtschule, Videbullenstraße, Innenstadt, Minden, Kreis Minden-Lübbecke, Nordrhein-Westfalen, 32423, Deutschland"
  },
  {
    "name": "Hüllhorst, GE Osterstraße",
    "schultyp": "Gesamtschule",
    "sozialindex": "1",
    "latitude": "52.27416",
    "longitude": "8.6712319",
    "address": "Osterstraße, Hüllhorst, Büttendorf, Hüllhorst, Kreis Minden-Lübbecke, Nordrhein-Westfalen, 32609, Deutschland"
  },
  {
    "name": "Hille, GE (Gym) Von Oeynhausen Straße",
    "schultyp": "Gesamtschule",
    "sozialindex": "1",
    "latitude": "",
    "longitude": "",
    "address": ""
  },
  {
    "name": "Porta Westfalica, GE Bruchstr.",
    "schultyp": "Gesamtschule",
    "sozialindex": "4",
    "latitude": "52.2531068",
    "longitude": "8.9458435",
    "address": "Gesamtschule Porta-Westfalica, Bruchstraße, Neesen, Lerbeck, Porta Westfalica, Kreis Minden-Lübbecke, Nordrhein-Westfalen, 32457, Deutschland"
  },
  {
    "name": "Bad Oeynhausen, GE Europaschule",
    "schultyp": "Gesamtschule",
    "sozialindex": "5",
    "latitude": "52.2195315",
    "longitude": "8.7936453",
    "address": "Europaschule Bad Oeynhausen, In der Wiehwisch, Eidinghausen, Bad Oeynhausen, Kreis Minden-Lübbecke, Nordrhein-Westfalen, 32549, Deutschland"
  },
  {
    "name": "Lübbecke, Gym Wittekind-Gymnasium",
    "schultyp": "Gymnasium",
    "sozialindex": "2",
    "latitude": "52.3029705",
    "longitude": "8.6236795",
    "address": "Wittekind-Gymnasium, 14, Ziegeleiweg, Lübbecke Innenstadt, Lübbecke, Kreis Minden-Lübbecke, Nordrhein-Westfalen, 32312, Deutschland"
  },
  {
    "name": "Minden, Gym Herder u.Caroline v.Humboldt",
    "schultyp": "Gymnasium",
    "sozialindex": "3",
    "latitude": "52.3118481",
    "longitude": "8.8818671",
    "address": "FES Minden Gesamtschule und Gymnasium, Kingsleyallee, Kuhlenkamp, Minderheide, Minden, Kreis Minden-Lübbecke, Nordrhein-Westfalen, 32425, Deutschland"
  },
  {
    "name": "Minden, Gym Besselgymnasium",
    "schultyp": "Gymnasium",
    "sozialindex": "3",
    "latitude": "52.2981042",
    "longitude": "8.8849205",
    "address": "Besselgymnasium, Wagnerstraße, Bärenkämpen, Minden, Kreis Minden-Lübbecke, Nordrhein-Westfalen, 32427, Deutschland"
  },
  {
    "name": "Minden, Gym Rats",
    "schultyp": "Gymnasium",
    "sozialindex": "3",
    "latitude": "",
    "longitude": "",
    "address": ""
  },
  {
    "name": "Bad Oeynhausen, Gym Immanuel-Kant",
    "schultyp": "Gymnasium",
    "sozialindex": "2",
    "latitude": "52.2024914",
    "longitude": "8.8143918",
    "address": "Immanuel-Kant-Gymnasium, Grüner Weg, Bad Oeynhausen, Kreis Minden-Lübbecke, Nordrhein-Westfalen, 32547, Deutschland"
  },
  {
    "name": "Petershagen, Gym Hauptstr.",
    "schultyp": "Gymnasium",
    "sozialindex": "1",
    "latitude": "52.3788396",
    "longitude": "8.9661062",
    "address": "Städtisches Gymnasium Petershagen, 15, Hauptstraße, Altstadt, Petershagen, Kreis Minden-Lübbecke, Nordrhein-Westfalen, 32469, Deutschland"
  },
  {
    "name": "Porta Westfalica, Gym Hoppenstr.",
    "schultyp": "Gymnasium",
    "sozialindex": "1",
    "latitude": "52.2359968",
    "longitude": "8.918993",
    "address": "Hoppenstraße, Hausberge, Porta Westfalica, Kreis Minden-Lübbecke, Nordrhein-Westfalen, 32457, Deutschland"
  },
  {
    "name": "Rahden, Gym Freiherr-vom-Stein-Str.",
    "schultyp": "Gymnasium",
    "sozialindex": "1",
    "latitude": "52.4364353",
    "longitude": "8.6194211",
    "address": "Gymnasium Rahden, 5, Freiherr-vom-Stein-Straße, Rahden, Kreis Minden-Lübbecke, Nordrhein-Westfalen, 32369, Deutschland"
  },
  {
    "name": "Paderborn, GE Elsen",
    "schultyp": "Gesamtschule",
    "sozialindex": "4",
    "latitude": "51.7342141",
    "longitude": "8.6840214",
    "address": "Elsen Schule, Von-Ketteler-Straße, Elsen, Paderborn, Kreis Paderborn, Nordrhein-Westfalen, 33106, Deutschland"
  },
  {
    "name": "Paderborn, GE Friedrich-Spee",
    "schultyp": "Gesamtschule",
    "sozialindex": "5",
    "latitude": "51.7191114",
    "longitude": "8.7948256",
    "address": "Friedrich-Spee-Gesamtschule, 6, Weißdornweg, Kaukenberg, Paderborn, Kreis Paderborn, Nordrhein-Westfalen, 33100, Deutschland"
  },
  {
    "name": "Salzkotten, GE Upsprunger Straße",
    "schultyp": "Gesamtschule",
    "sozialindex": "2",
    "latitude": "51.6608679",
    "longitude": "8.6025956",
    "address": "Gesamtschule Salzkotten, Upsprunger Straße, Salzkotten, Kreis Paderborn, Nordrhein-Westfalen, 33154, Deutschland"
  },
  {
    "name": "Paderborn, GE Heinz-Nixdorf-Gesamtschule",
    "schultyp": "Gesamtschule",
    "sozialindex": "5",
    "latitude": "51.7340418",
    "longitude": "8.7743441",
    "address": "Heinz-Nixdorf-Gesamtschule, 6-8, An den Lothewiesen, Paderborn, Kreis Paderborn, Nordrhein-Westfalen, 33100, Deutschland"
  },
  {
    "name": "Bad Lippspringe, GE an der Lippequelle",
    "schultyp": "Gesamtschule",
    "sozialindex": "5",
    "latitude": "",
    "longitude": "",
    "address": ""
  },
  {
    "name": "Delbrück, GE Driftweg",
    "schultyp": "Gesamtschule",
    "sozialindex": "2",
    "latitude": "51.7669831",
    "longitude": "8.5567093",
    "address": "Driftweg, Delbrück, Kreis Paderborn, Nordrhein-Westfalen, 33129, Deutschland"
  },
  {
    "name": "Büren, GE Kleffnerstraße",
    "schultyp": "Gesamtschule",
    "sozialindex": "3",
    "latitude": "51.5490504",
    "longitude": "8.5541883",
    "address": "Gesamtschule Büren, 4, Kleffnerstraße, Büren, Kreis Paderborn, Nordrhein-Westfalen, 33142, Deutschland"
  },
  {
    "name": "Paderborn, Gym Goerdeler-Gymnasium",
    "schultyp": "Gymnasium",
    "sozialindex": "2",
    "latitude": "51.7221982",
    "longitude": "8.7247087",
    "address": "Goerdeler-Gymnasium, 35, Goerdelerstraße, Paderborn, Kreis Paderborn, Nordrhein-Westfalen, 33102, Deutschland"
  },
  {
    "name": "Paderborn, Gym Pelizaeus",
    "schultyp": "Gymnasium",
    "sozialindex": "2",
    "latitude": "51.7213461",
    "longitude": "8.7622947",
    "address": "Pelizaeus-Gymnasium, Reismannweg, Paderborn, Kreis Paderborn, Nordrhein-Westfalen, 33102, Deutschland"
  },
  {
    "name": "Paderborn, Gym Reismann",
    "schultyp": "Gymnasium",
    "sozialindex": "3",
    "latitude": "51.7207421",
    "longitude": "8.7634739",
    "address": "Reismann-Gymnasium, 2, Reismannweg, Paderborn, Kreis Paderborn, Nordrhein-Westfalen, 33100, Deutschland"
  },
  {
    "name": "Paderborn, Gym Theodorianum",
    "schultyp": "Gymnasium",
    "sozialindex": "2",
    "latitude": "51.7162536",
    "longitude": "8.7544212",
    "address": "Gymnasium Theodorianum, Kötterhagen, Paderborn, Kreis Paderborn, Nordrhein-Westfalen, 33098, Deutschland"
  },
  {
    "name": "Paderborn, Gym Schloß Neuhaus",
    "schultyp": "Gymnasium",
    "sozialindex": "2",
    "latitude": "51.7382827",
    "longitude": "8.7259363",
    "address": "Berufskolleg Schloß Neuhaus, An der Kapelle, Schloß Neuhaus, Paderborn, Kreis Paderborn, Nordrhein-Westfalen, 33104, Deutschland"
  },
  {
    "name": "Delbrück, Gym Marktstr.",
    "schultyp": "Gymnasium",
    "sozialindex": "2",
    "latitude": "51.7651018",
    "longitude": "8.5598378",
    "address": "Marktstraße, Delbrück, Kreis Paderborn, Nordrhein-Westfalen, 33129, Deutschland"
  },
  {
    "name": "Bielefeld, GE Martin-Niemöller",
    "schultyp": "Gesamtschule",
    "sozialindex": "8",
    "latitude": "52.0543963",
    "longitude": "8.5448312",
    "address": "Martin-Niemöller-Gesamtschule, 210, Apfelstraße, Schildesche, Bielefeld, Nordrhein-Westfalen, 33611, Deutschland"
  },
  {
    "name": "Bielefeld, GE Laborschule d. Landes NRW",
    "schultyp": "Gesamtschule",
    "sozialindex": "3",
    "latitude": "52.002149",
    "longitude": "8.5845935",
    "address": "Stieghorst Gesamtschule, Am Wortkamp, Stieghorst, Bielefeld, Nordrhein-Westfalen, 33605, Deutschland"
  },
  {
    "name": "Bielefeld, GE Friedrich Wilhelm Murnau",
    "schultyp": "Gesamtschule",
    "sozialindex": "7",
    "latitude": "52.0006324",
    "longitude": "8.5832849",
    "address": "Friedrich Wilhelm Murnau-Gesamtschule, 3, Am Wortkamp, Stieghorst, Bielefeld, Nordrhein-Westfalen, 33605, Deutschland"
  },
  {
    "name": "Bielefeld, GE GesamtSchule Quelle",
    "schultyp": "Gesamtschule",
    "sozialindex": "3",
    "latitude": "",
    "longitude": "",
    "address": ""
  },
  {
    "name": "Bielefeld, GE Rosenhöhe",
    "schultyp": "Gesamtschule",
    "sozialindex": "7",
    "latitude": "51.9854904",
    "longitude": "8.5280945",
    "address": "Gesamtschule Rosenhöhe, 11, An der Rosenhöhe, Brackwede, Bielefeld, Nordrhein-Westfalen, 33647, Deutschland"
  },
  {
    "name": "Bielefeld, Gym Cecilien",
    "schultyp": "Gymnasium",
    "sozialindex": "4",
    "latitude": "",
    "longitude": "",
    "address": ""
  },
  {
    "name": "Bielefeld, Gym Ratsgymnasium",
    "schultyp": "Gymnasium",
    "sozialindex": "2",
    "latitude": "52.0185875",
    "longitude": "8.527525",
    "address": "Ratsgymnasium zu Bielefeld, 1, Nebelswall, Neustadt, Mitte, Bielefeld, Nordrhein-Westfalen, 33602, Deutschland"
  },
  {
    "name": "Bielefeld, Gym Helmholtz",
    "schultyp": "Gymnasium",
    "sozialindex": "3",
    "latitude": "52.0184477",
    "longitude": "8.5473673",
    "address": "Helmholtz-Gymnasium, 131, Ravensberger Straße, Mitte, Bielefeld, Nordrhein-Westfalen, 33607, Deutschland"
  },
  {
    "name": "Bielefeld, Gym am Waldhof",
    "schultyp": "Gymnasium",
    "sozialindex": "2",
    "latitude": "52.0186597",
    "longitude": "8.5289951",
    "address": "Gymnasium am Waldhof, 8, Waldhof, Mitte, Bielefeld, Nordrhein-Westfalen, 33602, Deutschland"
  },
  {
    "name": "Bielefeld, Gym Max-Planck",
    "schultyp": "Gymnasium",
    "sozialindex": "3",
    "latitude": "52.0294835",
    "longitude": "8.5151197",
    "address": "Max-Planck-Gymnasium, Stapenhorststraße, Mitte, Bielefeld, Nordrhein-Westfalen, 33615, Deutschland"
  },
  {
    "name": "Bielefeld, Gym Brackweder",
    "schultyp": "Gymnasium",
    "sozialindex": "4",
    "latitude": "51.98401",
    "longitude": "8.514032",
    "address": "Brackweder Realschule 2, 39, Stadtring, Brackwede, Bielefeld, Nordrhein-Westfalen, 33647, Deutschland"
  },
  {
    "name": "Bielefeld, Gym Heepen",
    "schultyp": "Gymnasium",
    "sozialindex": "3",
    "latitude": "52.0292398",
    "longitude": "8.6021218",
    "address": "Gymnasium Heepen, 37, Alter Postweg, Tieplatz, Heepen, Bielefeld, Nordrhein-Westfalen, 33719, Deutschland"
  },
  {
    "name": "Kleve, GE Joseph Beuys",
    "schultyp": "Gesamtschule",
    "sozialindex": "7",
    "latitude": "51.7809083",
    "longitude": "6.1225394",
    "address": "Joseph-Beuys-Gesamtschule - Teilstandort, 80, Ackerstraße, Unterstadt, Kleve, Bedburg-Hau, Kreis Kleve, Nordrhein-Westfalen, 47533, Deutschland"
  },
  {
    "name": "Geldern, GE Königsberger Straße",
    "schultyp": "Gesamtschule",
    "sozialindex": "4",
    "latitude": "51.5264152",
    "longitude": "6.3300265",
    "address": "Gesamtschule der Stadt Geldern, 60, Königsberger Straße, Geldern, Kreis Kleve, Nordrhein-Westfalen, 47608, Deutschland"
  },
  {
    "name": "Goch, GE Mittelkreis",
    "schultyp": "Gesamtschule",
    "sozialindex": "2",
    "latitude": "51.6723855",
    "longitude": "6.1572783",
    "address": "Gesamtschule Mittelkreis, 28, Südring, Goch, Bedburg-Hau, Kreis Kleve, Nordrhein-Westfalen, 47574, Deutschland"
  },
  {
    "name": "Kleve, GE am Forstgarten",
    "schultyp": "Gesamtschule",
    "sozialindex": "5",
    "latitude": "51.8009765",
    "longitude": "6.133436",
    "address": "Gesamtschule am Forstgarten, 4-6, Landwehr, Unterstadt, Kleve, Rindern, Kleve, Bedburg-Hau, Kreis Kleve, Nordrhein-Westfalen, 47533, Deutschland"
  },
  {
    "name": "Emmerich am Rhein, GE Paaltjessteege",
    "schultyp": "Gesamtschule",
    "sozialindex": "5",
    "latitude": "51.8325184",
    "longitude": "6.2439023",
    "address": "Gesamtschule Emmerich am Rhein, 1, Paaltjessteege, Emmerich am Rhein, Bedburg-Hau, Kreis Kleve, Nordrhein-Westfalen, 46446, Deutschland"
  },
  {
    "name": "Kevelaer, GE Kevelaer",
    "schultyp": "Gesamtschule",
    "sozialindex": "5",
    "latitude": "51.5806875",
    "longitude": "6.2347707",
    "address": "Gesamtschule Kevelaer, 20, Jahnstraße, Kevelaer Mitte, Kevelaer, Kreis Kleve, Nordrhein-Westfalen, 47623, Deutschland"
  },
  {
    "name": "Geldern, Gym Friedrich-Spee-Gymnasium",
    "schultyp": "Gymnasium",
    "sozialindex": "1",
    "latitude": "51.5160868",
    "longitude": "6.3302882",
    "address": "Friedrich-Spee-Gymnasium, 25, Friedrich-Spee-Straße, Geldern, Kreis Kleve, Nordrhein-Westfalen, 47608, Deutschland"
  },
  {
    "name": "Geldern, Gym Lise-Meitner",
    "schultyp": "Gymnasium",
    "sozialindex": "2",
    "latitude": "51.5173529",
    "longitude": "6.3324385",
    "address": "Lise-Meitner-Gymnasium, 6-8, Friedrich-Nettesheim-Weg, Geldern, Kreis Kleve, Nordrhein-Westfalen, 47608, Deutschland"
  },
  {
    "name": "Kevelaer, Gym Kardinal-von-Galen",
    "schultyp": "Gymnasium",
    "sozialindex": "2",
    "latitude": "51.583941",
    "longitude": "6.2388693",
    "address": "Kardinal-von-Galen-Straße, Kevelaer Mitte, Kevelaer, Kreis Kleve, Nordrhein-Westfalen, 47623, Deutschland"
  },
  {
    "name": "Goch, Gym Hubert-Houben-Str.",
    "schultyp": "Gymnasium",
    "sozialindex": "3",
    "latitude": "51.6667221",
    "longitude": "6.1681125",
    "address": "Städtisches Gymnasium Goch, 9, Hubert-Houben-Straße, Goch, Bedburg-Hau, Kreis Kleve, Nordrhein-Westfalen, 47574, Deutschland"
  },
  {
    "name": "Kalkar, Gym Jan-Joest",
    "schultyp": "Gymnasium",
    "sozialindex": "1",
    "latitude": "51.7345677",
    "longitude": "6.2987148",
    "address": "Jan-Joest-Gymnasium, 16, Am Bollwerk, Kalkar, Bedburg-Hau, Kreis Kleve, Nordrhein-Westfalen, 47546, Deutschland"
  },
  {
    "name": "Kleve, Gym Freiherr-vom-Stein",
    "schultyp": "Gymnasium",
    "sozialindex": "3",
    "latitude": "51.7865734",
    "longitude": "6.1283271",
    "address": "Freiherr-vom-Stein Gymnasium Kleve, 9, Römerstraße, Unterstadt, Kleve, Bedburg-Hau, Kreis Kleve, Nordrhein-Westfalen, 47533, Deutschland"
  },
  {
    "name": "Kleve, Gym Konrad-Adenauer",
    "schultyp": "Gymnasium",
    "sozialindex": "3",
    "latitude": "51.8040832",
    "longitude": "6.1607738",
    "address": "Konrad-Adenauer-Gymnasium, 41, Köstersweg, Kellen, Kleve, Bedburg-Hau, Kreis Kleve, Nordrhein-Westfalen, 47533, Deutschland"
  },
  {
    "name": "Emmerich am Rhein, Gym Willibrord",
    "schultyp": "Gymnasium",
    "sozialindex": "3",
    "latitude": "51.8421118",
    "longitude": "6.2437513",
    "address": "Städtisches Willibrord-Gymnasium, 3, Hansastraße, Klein-Netterden, Emmerich am Rhein, Bedburg-Hau, Kreis Kleve, Nordrhein-Westfalen, 46446, Deutschland"
  },
  {
    "name": "Rees, Gym Aspel",
    "schultyp": "Gymnasium",
    "sozialindex": "1",
    "latitude": "51.7606965",
    "longitude": "6.3894804",
    "address": "Gymnasium Aspel, 8, Westring, Esserden, Rees, Kreis Kleve, Nordrhein-Westfalen, 46459, Deutschland"
  },
  {
    "name": "Straelen, Gym Fontanestraße",
    "schultyp": "Gymnasium",
    "sozialindex": "1",
    "latitude": "51.4447457",
    "longitude": "6.261272",
    "address": "Städtisches Gymnasium Straelen, 7, Fontanestraße, Straelen, Kreis Kleve, Nordrhein-Westfalen, 47638, Deutschland"
  },
  {
    "name": "Haan, GE Walder Straße",
    "schultyp": "Gesamtschule",
    "sozialindex": "4",
    "latitude": "51.1936168",
    "longitude": "7.0179009",
    "address": "Schulzentrum Walder Straße, 15, Walder Straße, Musikantenviertel, Haan, Kreis Mettmann, Nordrhein-Westfalen, 42781, Deutschland"
  },
  {
    "name": "Monheim am Rhein, GE Ulla-Hahn",
    "schultyp": "Gesamtschule",
    "sozialindex": "6",
    "latitude": "",
    "longitude": "",
    "address": ""
  },
  {
    "name": "Velbert, GE Waldschlösschen",
    "schultyp": "Gesamtschule",
    "sozialindex": "2",
    "latitude": "51.304721",
    "longitude": "7.0804109",
    "address": "Velbert Gesamtschule Waldschlösschen, Waldschlößchen, Pöthen, Neviges, Velbert, Kreis Mettmann, Nordrhein-Westfalen, 42553, Deutschland"
  },
  {
    "name": "Mettmann, GE Borner Weg",
    "schultyp": "Gesamtschule",
    "sozialindex": "5",
    "latitude": "51.2569075",
    "longitude": "6.9727383",
    "address": "Borner Weg, Kaldenberg, Mettmann, Kreis Mettmann, Nordrhein-Westfalen, 40822, Deutschland"
  },
  {
    "name": "Monheim, GE Peter-Ustinov",
    "schultyp": "Gesamtschule",
    "sozialindex": "4",
    "latitude": "51.0954852",
    "longitude": "6.9004547",
    "address": "Peter-Ustinov-Gesamtschule, 8, Falkenstraße, Monheim am Rhein, Kreis Mettmann, Nordrhein-Westfalen, 40789, Deutschland"
  },
  {
    "name": "Velbert, GE Mitte",
    "schultyp": "Gesamtschule",
    "sozialindex": "6",
    "latitude": "51.3345595",
    "longitude": "7.0360532",
    "address": "Gesamtschule Velbert, Birkenstraße, Kostenberg, Velbert-Mitte, Velbert, Kreis Mettmann, Nordrhein-Westfalen, 42549, Deutschland"
  },
  {
    "name": "Ratingen, GE Martin-Luther-King",
    "schultyp": "Gesamtschule",
    "sozialindex": "6",
    "latitude": "51.2920948",
    "longitude": "6.8178003",
    "address": "Martin-Luther-King-Gesamtschule, 36, Erfurter Straße, EKZ Ratingen-West, West, Ratingen, Kreis Mettmann, Nordrhein-Westfalen, 40880, Deutschland"
  },
  {
    "name": "Langenfeld, GE Bettine-von-Arnim",
    "schultyp": "Gesamtschule",
    "sozialindex": "4",
    "latitude": "51.1348028",
    "longitude": "6.9473291",
    "address": "Bettine-von-Arnim-Gesamtschule, Dorotheenstraße, Richrath, Langenfeld (Rheinland), Kreis Mettmann, Nordrhein-Westfalen, 40764, Deutschland"
  },
  {
    "name": "Heiligenhaus, GE Hülsbecker Straße",
    "schultyp": "Gesamtschule",
    "sozialindex": "3",
    "latitude": "51.3218232",
    "longitude": "6.965686",
    "address": "Gesamtschule Heiligenhaus, 5, Hülsbecker Straße, Unterstadt, Nonnenbruch, Heiligenhaus, Kreis Mettmann, Nordrhein-Westfalen, 42579, Deutschland"
  },
  {
    "name": "Langenfeld, GE Prismaschule",
    "schultyp": "Gesamtschule",
    "sozialindex": "4",
    "latitude": "51.1065067",
    "longitude": "6.9505348",
    "address": "Prismaschule Gesamtschule, 25, Fröbelstraße, Immigrath, Langenfeld (Rheinland), Kreis Mettmann, Nordrhein-Westfalen, 40764, Deutschland"
  },
  {
    "name": "Haan, Gym Adlerstr.",
    "schultyp": "Gymnasium",
    "sozialindex": "2",
    "latitude": "51.1958133",
    "longitude": "6.997959",
    "address": "Gymnasium Haan, 3-5, Adlerstraße, Haan, Kreis Mettmann, Nordrhein-Westfalen, 42781, Deutschland"
  },
  {
    "name": "Heiligenhaus, Gym Immanuel-Kant",
    "schultyp": "Gymnasium",
    "sozialindex": "2",
    "latitude": "51.3233862",
    "longitude": "6.9716275",
    "address": "Immanuel-Kant-Gymnasium, Herzogstraße, Oberstadt, Heide, Heiligenhaus, Kreis Mettmann, Nordrhein-Westfalen, 42579, Deutschland"
  },
  {
    "name": "Hilden, Gym Helmholtz",
    "schultyp": "Gymnasium",
    "sozialindex": "3",
    "latitude": "51.1653183",
    "longitude": "6.9475414",
    "address": "Helmholtz-Gymnasium, 30, Am Holterhöfchen, Pungshaus, Hilden, Kreis Mettmann, Nordrhein-Westfalen, 40724, Deutschland"
  },
  {
    "name": "Velbert, Gym Langenberg",
    "schultyp": "Gymnasium",
    "sozialindex": "2",
    "latitude": "51.3459102",
    "longitude": "7.1303606",
    "address": "Städtisches Gymnasium Velbert-Langenberg, Panner Straße, Langenberg, Velbert, Kreis Mettmann, Nordrhein-Westfalen, 42555, Deutschland"
  },
  {
    "name": "Mettmann, Gym Konrad-Heresbach",
    "schultyp": "Gymnasium",
    "sozialindex": "2",
    "latitude": "51.2467477",
    "longitude": "6.9725317",
    "address": "Konrad-Heresbach-Gymnasium, Laubacher Straße, Süd, Mettmann, Kreis Mettmann, Nordrhein-Westfalen, 40822, Deutschland"
  },
  {
    "name": "Ratingen, Gym C.F. von Weizsäcker",
    "schultyp": "Gymnasium",
    "sozialindex": "3",
    "latitude": "",
    "longitude": "",
    "address": ""
  },
  {
    "name": "Velbert, Gym Nikolaus-Ehlen",
    "schultyp": "Gymnasium",
    "sozialindex": "3",
    "latitude": "51.3369184",
    "longitude": "7.0445753",
    "address": "Nikolaus-Ehlen-Gymnasium, Friedrich-Ebert-Straße, Nordstadt, Velbert-Mitte, Velbert, Kreis Mettmann, Nordrhein-Westfalen, 42549, Deutschland"
  },
  {
    "name": "Velbert, Gym Geschwister-Scholl",
    "schultyp": "Gymnasium",
    "sozialindex": "3",
    "latitude": "51.3425515",
    "longitude": "7.0168751",
    "address": "Geschwister-Scholl-Gymnasium, 54-58, Von-Humboldt-Straße, Birth, Velbert-Mitte, Velbert, Kreis Mettmann, Nordrhein-Westfalen, 42549, Deutschland"
  },
  {
    "name": "Wülfrath, Gym Kastanienallee",
    "schultyp": "Gymnasium",
    "sozialindex": "2",
    "latitude": "51.2748095",
    "longitude": "7.0285862",
    "address": "Gymnasium Wülfrath, 63, Kastanienallee, Süd - Erbach, Wülfrath, Kreis Mettmann, Nordrhein-Westfalen, 42489, Deutschland"
  },
  {
    "name": "Erkrath, Gym am Neandertal",
    "schultyp": "Gymnasium",
    "sozialindex": "1",
    "latitude": "51.2258265",
    "longitude": "6.9099922",
    "address": "Gymnasium am Neandertal, Rolandstraße, Alt-Erkrath, Erkrath, Kreis Mettmann, Nordrhein-Westfalen, 40699, Deutschland"
  },
  {
    "name": "Mettmann, Gym Heinrich-Heine",
    "schultyp": "Gymnasium",
    "sozialindex": "2",
    "latitude": "51.2660938",
    "longitude": "6.9643105",
    "address": "Heinrich-Heine-Gymnasium, Hasselbeckstraße, Metzkausen, Mettmann, Kreis Mettmann, Nordrhein-Westfalen, 40822, Deutschland"
  },
  {
    "name": "Langenfeld, Gym Konrad-Adenauer",
    "schultyp": "Gymnasium",
    "sozialindex": "2",
    "latitude": "51.1129039",
    "longitude": "6.9462512",
    "address": "Konrad-Adenauer-Gymnasium, Auf dem Sändchen, Immigrath, Langenfeld (Rheinland), Kreis Mettmann, Nordrhein-Westfalen, 40764, Deutschland"
  },
  {
    "name": "Monheim, Gym Otto-Hahn",
    "schultyp": "Gymnasium",
    "sozialindex": "2",
    "latitude": "51.0856576",
    "longitude": "6.8872294",
    "address": "Otto-Hahn-Gymnasium, 7, Berliner Ring, Berliner-Viertel, Monheim am Rhein, Kreis Mettmann, Nordrhein-Westfalen, 40789, Deutschland"
  },
  {
    "name": "Ratingen, Gym Kopernikus",
    "schultyp": "Gymnasium",
    "sozialindex": "2",
    "latitude": "51.34318",
    "longitude": "6.8283429",
    "address": "Kopernikus-Gymnasium-Lintorf, 112, Duisburger Straße, Lintorf, Lintorf/Breitscheid, Ratingen, Kreis Mettmann, Nordrhein-Westfalen, 40885, Deutschland"
  },
  {
    "name": "Ratingen, Gym Dietrich-Bonhoeffer",
    "schultyp": "Gymnasium",
    "sozialindex": "4",
    "latitude": "51.2916617",
    "longitude": "6.8187447",
    "address": "Dietrich-Bonhoeffer-Gymnasium, 30, Erfurter Straße, EKZ Ratingen-West, West, Ratingen, Kreis Mettmann, Nordrhein-Westfalen, 40880, Deutschland"
  },
  {
    "name": "Tönisvorst, GE Rupert-Neudeck",
    "schultyp": "Gesamtschule",
    "sozialindex": "4",
    "latitude": "51.3172233",
    "longitude": "6.4923985",
    "address": "Rupert Neudeck Gesamtschule, Corneliusstraße, St. Tönis, Tönisvorst, Kreis Viersen, Nordrhein-Westfalen, 47918, Deutschland"
  },
  {
    "name": "Brüggen, GE Brüggen",
    "schultyp": "Gesamtschule",
    "sozialindex": "2",
    "latitude": "51.239761",
    "longitude": "6.1824248",
    "address": "Gemeinschaftsgrundschule Brüggen, 1, Nikolausplatz, Brüggen, Kreis Viersen, Nordrhein-Westfalen, 41379, Deutschland"
  },
  {
    "name": "Viersen, GE Anne-Frank-Schule",
    "schultyp": "Gesamtschule",
    "sozialindex": "4",
    "latitude": "51.2669773",
    "longitude": "6.3921113",
    "address": "Anne-Frank-Gesamtschule, Rahserstraße, Rahser, Süchteln, Viersen, Tönisvorst, Kreis Viersen, Nordrhein-Westfalen, 41748, Deutschland"
  },
  {
    "name": "Willich, GE Robert-Schuman",
    "schultyp": "Gesamtschule",
    "sozialindex": "2",
    "latitude": "51.2703091",
    "longitude": "6.5412087",
    "address": "Robert-Schuman-Europaschule Willich, 2 - 6, Kantstraße, Wekeln, Willich, Tönisvorst, Kreis Viersen, Nordrhein-Westfalen, 47877, Deutschland"
  },
  {
    "name": "Nettetal, GE Von-Waldois-Str.",
    "schultyp": "Gesamtschule",
    "sozialindex": "2",
    "latitude": "51.2923268",
    "longitude": "6.2499722",
    "address": "Von-Waldois-Straße, Breyell, Nettetal, Kreis Viersen, Nordrhein-Westfalen, 41334, Deutschland"
  },
  {
    "name": "Willich, GE Leonardo-da-Vinci",
    "schultyp": "Gesamtschule",
    "sozialindex": "3",
    "latitude": "51.2482309",
    "longitude": "6.521715",
    "address": "Leonardo-da-Vinci-Gesamtschule, Klosterweg, Schiefbahn, Wekeln, Willich, Tönisvorst, Kreis Viersen, Nordrhein-Westfalen, 47877, Deutschland"
  },
  {
    "name": "Kempen, GE Wachtendonker Straße",
    "schultyp": "Gesamtschule",
    "sozialindex": "2",
    "latitude": "51.3679811",
    "longitude": "6.4137755",
    "address": "Gesamtschule Kempen, 38, Wachtendonker Straße, Kempen, Tönisvorst, Kreis Viersen, Nordrhein-Westfalen, 47906, Deutschland"
  },
  {
    "name": "Kempen, Gym Thomaeum",
    "schultyp": "Gymnasium",
    "sozialindex": "1",
    "latitude": "51.3656632",
    "longitude": "6.4135354",
    "address": "Gymnasium Thomaeum, Am Gymnasium, Kempen, Tönisvorst, Kreis Viersen, Nordrhein-Westfalen, 47906, Deutschland"
  },
  {
    "name": "Kempen, Gym Luise-von-Duesberg",
    "schultyp": "Gymnasium",
    "sozialindex": "2",
    "latitude": "51.3674549",
    "longitude": "6.4110029",
    "address": "Luise-von-Duesberg-Gymnasium, Berliner Allee, Kempen, Tönisvorst, Kreis Viersen, Nordrhein-Westfalen, 47906, Deutschland"
  },
  {
    "name": "Nettetal, Gym Werner-Jaeger",
    "schultyp": "Gymnasium",
    "sozialindex": "1",
    "latitude": "51.3121111",
    "longitude": "6.2709013",
    "address": "Werner-Jaeger-Gymnasium, 7, An den Sportplätzen, Lobberich, Nettetal, Kreis Viersen, Nordrhein-Westfalen, 41334, Deutschland"
  },
  {
    "name": "Schwalmtal, Gym St.Wolfhelm",
    "schultyp": "Gymnasium",
    "sozialindex": "1",
    "latitude": "51.216291",
    "longitude": "6.2811487",
    "address": "Gymnasium St. Wolfhelm, Turmstraße, Waldniel, Schwalmtal, Kreis Viersen, Nordrhein-Westfalen, 41366, Deutschland"
  },
  {
    "name": "Viersen, Gym Erasmus-von-Rotterdam",
    "schultyp": "Gymnasium",
    "sozialindex": "3",
    "latitude": "51.256094",
    "longitude": "6.3817916",
    "address": "Erasmus-von-Rotterdam-Gymnasium, Konrad-Adenauer-Ring, Noppdorf, Hoser, Viersen, Tönisvorst, Kreis Viersen, Nordrhein-Westfalen, 41747, Deutschland"
  },
  {
    "name": "Viersen, Gym Clara-Schumann-Gymnasium",
    "schultyp": "Gymnasium",
    "sozialindex": "4",
    "latitude": "51.2473504",
    "longitude": "6.3280872",
    "address": "Clara-Schumann-Gymnasium, 1, Brandenburger Straße, Dülken, Viersen, Tönisvorst, Kreis Viersen, Nordrhein-Westfalen, 41751, Deutschland"
  },
  {
    "name": "Tönisvorst, Gym Michael-Ende-Gymnasium",
    "schultyp": "Gymnasium",
    "sozialindex": "2",
    "latitude": "51.3175774",
    "longitude": "6.4855915",
    "address": "Michael-Ende-Gymnasium, 25, Corneliusstraße, St. Tönis, Tönisvorst, Kreis Viersen, Nordrhein-Westfalen, 47918, Deutschland"
  },
  {
    "name": "Willich, Gym Lise-Meitner",
    "schultyp": "Gymnasium",
    "sozialindex": "1",
    "latitude": "51.2776231",
    "longitude": "6.4681112",
    "address": "Lise-Meitner-Gymnasium, Fadheider Straße, Eschert, Fadheide, Willich, Tönisvorst, Kreis Viersen, Nordrhein-Westfalen, 47877, Deutschland"
  },
  {
    "name": "Wesel, GE Ida Noddack",
    "schultyp": "Gesamtschule",
    "sozialindex": "7",
    "latitude": "51.6600937",
    "longitude": "6.6118518",
    "address": "Ida-Noddack Gesamtschule, 12, Martinistraße, Zitadellenviertel, Wesel, Kreis Wesel, Nordrhein-Westfalen, 46483, Deutschland"
  },
  {
    "name": "Dinslaken, GE Hiesfeld",
    "schultyp": "Gesamtschule",
    "sozialindex": "3",
    "latitude": "51.5645073",
    "longitude": "6.7686672",
    "address": "Schulzentrum Hiesfeld, Campus Nord, 63-65, Kirchstraße, Hiesfeld, Dinslaken, Kreis Wesel, Nordrhein-Westfalen, 46539, Deutschland"
  },
  {
    "name": "Rheinberg, GE Europaschule Rheinberg",
    "schultyp": "Gesamtschule",
    "sozialindex": "3",
    "latitude": "51.5520583",
    "longitude": "6.592654",
    "address": "Europaschule Rheinberg, 11, Dr.-Aloys-Wittrup-Straße, Rheinberg, Kreis Wesel, Nordrhein-Westfalen, 47495, Deutschland"
  },
  {
    "name": "Moers, GE Geschwister-Scholl",
    "schultyp": "Gesamtschule",
    "sozialindex": "6",
    "latitude": "51.4489806",
    "longitude": "6.6601559",
    "address": "Geschwister-Scholl-Gesamtschule Moers, 522, Römerstraße, Hochstraß, Moers, Kreis Wesel, Nordrhein-Westfalen, 47443, Deutschland"
  },
  {
    "name": "Dinslaken, GE Ernst-Barlach",
    "schultyp": "Gesamtschule",
    "sozialindex": "4",
    "latitude": "51.5681388",
    "longitude": "6.7324586",
    "address": "Ernst-Barlach-Gesamtschule, Wilhelm-Lantermann-Straße, Innenstadt, Dinslaken, Kreis Wesel, Nordrhein-Westfalen, 46535, Deutschland"
  },
  {
    "name": "Wesel, GE Am Lauerhaas",
    "schultyp": "Gesamtschule",
    "sozialindex": "4",
    "latitude": "51.6701062",
    "longitude": "6.6499553",
    "address": "Gesamtschule \"Am Lauerhaas\" Wesel, Kirchturmstraße, Obrighoven, Obrighoven-Lackhausen, Wesel, Kreis Wesel, Nordrhein-Westfalen, 46485, Deutschland"
  },
  {
    "name": "Moers, GE Anne-Frank",
    "schultyp": "Gesamtschule",
    "sozialindex": "5",
    "latitude": "51.4832858",
    "longitude": "6.6110417",
    "address": "Anne-Frank-Gesamtschule Rheinkamp, 9, Kopernikusstraße, Rheinkamp-Mitte, Rheinkamp, Moers, Kreis Wesel, Nordrhein-Westfalen, 47445, Deutschland"
  },
  {
    "name": "Schermbeck, GE Schloßstr.",
    "schultyp": "Gesamtschule",
    "sozialindex": "2",
    "latitude": "51.6960446",
    "longitude": "6.8764149",
    "address": "Gesamtschule Schermbeck, 20, Schloßstraße, Alt-Schermbeck, Schermbeck, Kreis Wesel, Nordrhein-Westfalen, 46514, Deutschland"
  },
  {
    "name": "Kamp-Lintfort, GE UNESCO-Schule",
    "schultyp": "Gesamtschule",
    "sozialindex": "3",
    "latitude": "51.5063957",
    "longitude": "6.5401691",
    "address": "UNESCO-Schule, 167, Moerser Straße, Stadtmitte, Niersenbruch, Kamp-Lintfort, Kreis Wesel, Nordrhein-Westfalen, 47475, Deutschland"
  },
  {
    "name": "Moers, GE Hermann-Runge",
    "schultyp": "Gesamtschule",
    "sozialindex": "3",
    "latitude": "51.4540824",
    "longitude": "6.6319223",
    "address": "Hermann-Runge-Gesamtschule, Gabelsbergerstraße, Altstadt Moers, Moers-Mitte, Moers, Kreis Wesel, Nordrhein-Westfalen, 47441, Deutschland"
  },
  {
    "name": "Hünxe, GE In den Elsen",
    "schultyp": "Gesamtschule",
    "sozialindex": "1",
    "latitude": "51.6379553",
    "longitude": "6.7704298",
    "address": "Gesamtschule Hünxe, 34, In den Elsen, Krudenburg, Hünxe, Kreis Wesel, Nordrhein-Westfalen, 46569, Deutschland"
  },
  {
    "name": "Hamminkeln, GE Diersfordter Straße",
    "schultyp": "Gesamtschule",
    "sozialindex": "2",
    "latitude": "51.7274453",
    "longitude": "6.5891606",
    "address": "Gesamtschule Hamminkeln, Diersfordter Straße, Hamminkeln, Kreis Wesel, Nordrhein-Westfalen, 46499, Deutschland"
  },
  {
    "name": "Xanten, GE Willi-Fährmann-Gesamtschule",
    "schultyp": "Gesamtschule",
    "sozialindex": "3",
    "latitude": "51.6562406",
    "longitude": "6.4470704",
    "address": "Willi-Fährmann-Gesamtschule, 3, Heinrich-Lensing-Straße, Hochbruch, Xanten, Kreis Wesel, Nordrhein-Westfalen, 46509, Deutschland"
  },
  {
    "name": "Neukirchen-Vluyn, GE Tersteegenstraße",
    "schultyp": "Gesamtschule",
    "sozialindex": "3",
    "latitude": "51.4462981",
    "longitude": "6.5437827",
    "address": "Tersteegenstraße, Hochkamer, Vluyn, Neukirchen-Vluyn, Kreis Wesel, Nordrhein-Westfalen, 47506, Deutschland"
  },
  {
    "name": "Voerde, GE Comenius",
    "schultyp": "Gesamtschule",
    "sozialindex": "3",
    "latitude": "51.5950013",
    "longitude": "6.6791677",
    "address": "Comenius-Gesamtschule, 1, Allee, Voerde, Voerde (Niederrhein), Kreis Wesel, Nordrhein-Westfalen, 46562, Deutschland"
  },
  {
    "name": "Dinslaken, Gym Otto-Hahn",
    "schultyp": "Gymnasium",
    "sozialindex": "2",
    "latitude": "51.5702442",
    "longitude": "6.7254921",
    "address": "Otto-Hahn-Gymnasium, 12, Hagenstraße, Hagenviertel, Dinslaken, Kreis Wesel, Nordrhein-Westfalen, 46535, Deutschland"
  },
  {
    "name": "Dinslaken, Gym Theodor-Heuss",
    "schultyp": "Gymnasium",
    "sozialindex": "2",
    "latitude": "51.5631883",
    "longitude": "6.7301447",
    "address": "Theodor-Heuss-Gymnasium, 30, Voerder Straße, Innenstadt, Dinslaken, Kreis Wesel, Nordrhein-Westfalen, 46535, Deutschland"
  },
  {
    "name": "Voerde, Gym Am Hallenbad",
    "schultyp": "Gymnasium",
    "sozialindex": "1",
    "latitude": "51.6160767",
    "longitude": "6.6473318",
    "address": "Gymnasium Voerde, 33, Am Hallenbad, Friedrichsfeld, Voerde (Niederrhein), Kreis Wesel, Nordrhein-Westfalen, 46562, Deutschland"
  },
  {
    "name": "Kamp-Lintfort, Gym Georg-Forster",
    "schultyp": "Gymnasium",
    "sozialindex": "3",
    "latitude": "51.5062453",
    "longitude": "6.5417003",
    "address": "Georg-Forster-Gymnasium, 167, Moerser Straße, Stadtmitte, Niersenbruch, Kamp-Lintfort, Kreis Wesel, Nordrhein-Westfalen, 47475, Deutschland"
  },
  {
    "name": "Moers, Gym Grafschafter",
    "schultyp": "Gymnasium",
    "sozialindex": "4",
    "latitude": "51.4509139",
    "longitude": "6.6337358",
    "address": "Grafschafter Gymnasium, Bankstraße, Altstadt Moers, Moers-Mitte, Moers, Kreis Wesel, Nordrhein-Westfalen, 47441, Deutschland"
  },
  {
    "name": "Moers, Gym Adolfinum",
    "schultyp": "Gymnasium",
    "sozialindex": "2",
    "latitude": "51.4536582",
    "longitude": "6.6303081",
    "address": "Gymnasium Adolfinum, Seminarstraße, Altstadt Moers, Moers-Mitte, Moers, Kreis Wesel, Nordrhein-Westfalen, 47441, Deutschland"
  },
  {
    "name": "Moers, Gym in den Filder Benden",
    "schultyp": "Gymnasium",
    "sozialindex": "2",
    "latitude": "51.4423565",
    "longitude": "6.6201818",
    "address": "Gymnasium in den Filder Benden, 43, Zahnstraße, Altstadt Moers, Vinn, Moers, Kreis Wesel, Nordrhein-Westfalen, 47447, Deutschland"
  },
  {
    "name": "Rheinberg, Gym Amplonius",
    "schultyp": "Gymnasium",
    "sozialindex": "1",
    "latitude": "51.5495723",
    "longitude": "6.5943982",
    "address": "Amplonius-Gymnasium, 18, Friedrich-Stender-Weg, Rheinberg, Kreis Wesel, Nordrhein-Westfalen, 47495, Deutschland"
  },
  {
    "name": "Xanten, Gym Stiftsgymnasium",
    "schultyp": "Gymnasium",
    "sozialindex": "1",
    "latitude": "51.6579993",
    "longitude": "6.4521502",
    "address": "Städtisches Stiftsgymnasium, 6, Johannes-Janssen-Straße, Beek, Xanten, Kreis Wesel, Nordrhein-Westfalen, 46509, Deutschland"
  },
  {
    "name": "Neukirchen-Vluyn, Gym Julius-Stursberg",
    "schultyp": "Gymnasium",
    "sozialindex": "1",
    "latitude": "51.4468492",
    "longitude": "6.5496735",
    "address": "Julius-Stursberg-Gymnasium, 85a, Tersteegenstraße, Vluyn, Neukirchen-Vluyn, Kreis Wesel, Nordrhein-Westfalen, 47506, Deutschland"
  },
  {
    "name": "Moers, Gym Rheinkamp, Europaschule",
    "schultyp": "Gymnasium",
    "sozialindex": "3",
    "latitude": "51.4820114",
    "longitude": "6.6132023",
    "address": "Gymnasium Rheinkamp Europaschule Moers, 8, Kopernikusstraße, Rheinkamp-Mitte, Rheinkamp, Moers, Kreis Wesel, Nordrhein-Westfalen, 47445, Deutschland"
  },
  {
    "name": "Wesel, Gym Andreas-Vesalius",
    "schultyp": "Gymnasium",
    "sozialindex": "2",
    "latitude": "51.6591534",
    "longitude": "6.6134308",
    "address": "Andreas-Vesalius-Gymnasium, 4, Ritterstraße, Zitadellenviertel, Wesel, Kreis Wesel, Nordrhein-Westfalen, 46483, Deutschland"
  },
  {
    "name": "Wesel, Gym Konrad-Duden",
    "schultyp": "Gymnasium",
    "sozialindex": "2",
    "latitude": "51.6802858",
    "longitude": "6.6001696",
    "address": "Konrad-Duden-Schulzentrum, 54, Barthel-Bruyn-Weg, Feldmark, Wesel, Kreis Wesel, Nordrhein-Westfalen, 46483, Deutschland"
  },